"","date_time","latitude","longitude","altitude","pressure","temperature","satellites_used","gps_fixtime","positiondop","h_accuracy","v_accuracy","x_speed","y_speed","z_speed","speed_accuracy","location","userflag","speed_3d","speed_2d","direction","altitude_agl","year"
"41",2013-05-23 08:39:21,"52.9244573","5.4333249","-3","\N",23.7,"\N","42.2","2.6","5.3","5.2","0.01","0.01","-0.1","0.64","0101000020E61000007D2BC885B9BB15403406E79D54764A40",0,"0.100995049383621","0.0695704391570446","172.560275481916","1","2013"
"42",2013-05-23 09:39:20,"52.9244315","5.4333701","4","\N",40.6,"\N","9.7","3.2","11","17","-0.42","-0.31","-1.12","0.61","0101000020E6100000CB411A5FC5BB154034F279C553764A40",0,"1.23567795157153","0.416567384643468","-139.806927286637","8","2013"
"43",2013-05-23 10:41:34,"52.920761","5.4618107","5","\N",25,"\N","128","2","4.1","4","-3.28","6.01","1.81","0.26","0101000020E61000007FC575E7E4D815405437177FDB754A40",0,"7.08199124540549","7.07971160845874","62.7663829331222","6","2013"
"44",2013-05-23 11:41:42,"52.9441729","5.4846595","3","\N",50.5,"\N","8.6","4","10.1","26.9","-1.05","-0.63","-1.57","1.73","0101000020E610000069C878944AF015407EA257A8DA784A40",0,"1.99105499672912","0.530619372813995","-96.916814205722","5","2013"
"45",2013-05-23 12:42:14,"52.926957","5.4582649","29","\N",55.2,"\N","24.9","7.6","45.6","61.8","10.74","-10.7","-7.2","1.18","0101000020E61000006C9ED96443D515402EE6E786A6764A40",0,"16.7832535582348","16.7830287818677","-135.930631159521","31","2013"
"46",2013-05-23 13:42:39,"52.9220158","5.4435613","0","\N",13.5,"\N","34.4","2.2","4.7","11.7","-0.13","0","-0.21","0.65","0101000020E6100000C115F5EE34C6154098B21D9D04764A40",0,"0.246981780704569","0.0264164201613009","152.170056258019","1","2013"
"47",2013-05-23 14:45:14,"52.9255508","5.4408781","0","\N",20.5,"\N","13.9","3.1","9.4","6.8","0.14","0.25","-0.48","0.68","0101000020E61000002917748C75C31540B164D87278764A40",0,"0.559016994374947","0.481111979077825","150.679338868899","2","2013"
"48",2013-05-23 15:46:09,"52.9255463","5.4408746","-1","\N",19.1,"\N","37.2","1.9","2.5","3.3","-0.09","-0.03","-0.11","0.34","0101000020E61000005F8C92A174C3154087B7184D78764A40",0,"0.145258390463339","0.022591099351048","-70.7743362163499","1","2013"
"49",2013-05-23 16:48:20,"52.9157047","5.4393103","0","\N",21.9,"\N","8.7","2.1","6.4","7.7","-4.98","8.82","2.03","0.23","0101000020E61000000D2F2D8FDAC1154091A5C5CF35754A40",0,"10.330232330398","10.293886113572","64.0033306440019","1","2013"
"50",2013-05-23 17:48:55,"52.9444886","5.4973726","4","\N",24.7,"\N","28.2","3.1","7.1","7.2","-0.28","-0.39","-0.68","0.61","0101000020E6100000BAB42B3E4FFD1540F038A000E5784A40",0,"0.83240615086627","0.394218906261649","-113.551055851308","6","2013"
"51",2013-05-23 18:49:09,"52.9444956","5.497394","2","\N",17.8,"\N","26.5","2.9","3.5","5.6","-0.38","-0.09","-0.43","0.47","0101000020E610000010E84CDA54FD1540A39B583BE5784A40",0,"0.580861429258304","0.0727442575386531","-46.9770067443003","4","2013"
"52",2013-05-23 19:49:07,"52.9444211","5.49745","9","\N",11,"\N","10.1","3","83.4","46.2","-0.71","-0.17","-0.41","1.42","0101000020E6100000AF94658863FD1540801365CAE2784A40",0,"0.837317144217172","0.345116688517184","-17.0515143681088","11","2013"
"53",2013-05-23 20:49:39,"52.9444532","5.4973769","-1","\N",7.5,"\N","25.5","1.9","10.2","5.4","-0.5","0.23","0.01","0.75","0101000020E6100000B924BD5E50FD1540204DABD7E3784A40",0,"0.550454357780915","0.474714408325943","35.6742631060098","1","2013"
"54",2013-05-23 21:49:44,"52.9444637","5.4974299","-15","\N",6.7,"\N","14.9","3.5","13.7","19.4","-0.54","0.24","-0.44","1.05","0101000020E6100000D03582435EFD15402CE1BF2FE4784A40",0,"0.736749618255754","0.325005868774911","63.409190826669","-13","2013"
"55",2013-05-23 22:50:05,"52.9445217","5.4973474","5","\N",5.5,"\N","20.3","6.8","8.7","8.9","-0.81","-0.21","-0.19","1.49","0101000020E6100000A50007A348FD154061EE4916E6784A40",0,"0.858079250419214","0.560637521267529","-13.5586718664781","7","2013"
"56",2013-05-23 23:50:08,"52.9444761","5.4973492","0","\N",4.8,"\N","7.7","2.2","8.2","5.9","-0.41","0.34","-0.33","0.4","0101000020E61000005EC4D21B49FD154044ADC497E4784A40",0,"0.626578007912822","0.390945345135617","75.050983034672","2","2013"
"57",2013-05-24 00:50:39,"52.9444852","5.4973501","-3","\N",4.7,"\N","39.1","1.7","3.2","4.3","-0.19","-0.04","-0.13","0.39","0101000020E61000003AA6385849FD15402CC71AE4E4784A40",0,"0.233666428910958","0.0786810710325668","-15.9444315131866","-1","2013"
"58",2013-05-24 01:50:55,"52.9443112","5.4971016","33","\N",4.4,"\N","7.5","4","8.1","6.8","-1.68","0.61","-0.24","0.62","0101000020E61000003728AB3308FD15408E9F7C30DF784A40",0,"1.80335797888273","1.3773762571293","33.895290978394","35","2013"
"59",2013-05-24 02:51:09,"52.944531","5.4972222","-23","\N",4.8,"\N","23","4.6","7.2","10.1","-0.39","-0.34","-0.41","0.83","0101000020E61000007561FFD027FD154072874D64E6784A40",0,"0.66015149776396","0.313881131142909","-73.5771989679467","-21","2013"
"60",2013-05-24 03:51:36,"52.9446182","5.4970944","-10","\N",4.7,"\N","18.4","5.1","9","6.6","-0.1","-0.13","-0.05","1.43","0101000020E610000056197C5006FD15406B1ACA3FE9784A40",0,"0.171464281994822","0.133670186513894","-63.6894588172915","-8","2013"
"61",2013-05-24 04:52:08,"52.9250129","5.4440776","0","\N",8.1,"\N","34.8","1.2","2.3","2.4","0","0.01","-0.05","0.22","0101000020E6100000708B4347BCC6154066F09CD266764A40",0,"0.0509901951359279","0.0324639191805466","162.142852249929","1","2013"
"62",2013-05-24 05:52:13,"52.925009","5.4440918","-6","\N",13.5,"\N","8.2","2","6.1","7.8","-0.27","0.06","-0.19","0.49","0101000020E6100000E5AF3500C0C61540BAC0E5B166764A40",0,"0.33555923471125","0.127975572848954","41.8273754423531","-5","2013"
"63",2013-05-24 06:52:29,"52.9250069","5.4440488","-2","\N",20.1,"\N","8.7","3.1","11","10.4","-0.52","-0.25","-0.35","0.56","0101000020E6100000EB4F87BAB4C61540840948A066764A40",0,"0.67483331275212","0.297701700056091","-42.0872594164709","-1","2013"
"64",2013-05-24 07:53:40,"52.9253369","5.4299005","0","\N",22.3,"\N","16","3.9","31.7","24.3","-1.06","-0.61","-0.03","1.38","0101000020E6100000DD2230D637B8154019A4857071764A40",0,"1.22335603975294","1.00683835931978","-30.232759981645","2","2013"
"65",2013-05-24 08:54:27,"52.9253444","5.4296936","0","\N",27.9,"\N","47.6","3.7","15.2","14.3","0.18","-0.05","-1.18","1.34","0101000020E6100000B8335D9901B81540B4C46FAF71764A40",0,"1.19469661420798","0.853182687063606","-175.508886732603","2","2013"
"66",2013-05-24 09:54:21,"52.9251043","5.4297262","-2","\N",26.9,"\N","10","1.4","10","11.2","0.1","0.04","-0.68","0.6","0101000020E6100000FBEF1C250AB81540CAF154D169764A40",0,"0.68847657912234","0.493325393153527","176.471928711654","0","2013"
"67",2013-05-24 10:54:20,"52.9252089","5.4296562","-7","\N",35,"\N","9.4","4.5","17","15.8","0.06","-0.09","-1.22","1.04","0101000020E610000034187ECBF7B71540ECBBC73E6D764A40",0,"1.22478569554024","0.782171290899974","-173.003624023595","-5","2013"
"68",2013-05-24 11:54:56,"52.9251911","5.4295914","-7","\N",32.5,"\N","13.9","4.5","39.9","47","-1.17","-0.8","-0.87","2.62","0101000020E61000004892D6CEE6B715406F8676A96C764A40",0,"1.66306945134591","0.82861520234372","-55.8456354633813","-5","2013"
"69",2013-05-24 12:55:08,"52.9252036","5.429638","-4","\N",25.6,"\N","26.3","2.2","7.6","7","-0.21","-0.01","-0.46","0.46","0101000020E6100000B3791C06F3B715401C1252126D764A40",0,"0.505766744656072","0.110209715924759","174.838019426971","-2","2013"
"70",2013-05-24 13:55:12,"52.9252219","5.4296494","-3","\N",17.6,"\N","14.8","3.3","30.9","26.4","0.06","0.16","-0.47","1.66","0101000020E6100000EDFB2603F6B715408005D5AB6D764A40",0,"0.500099990001999","0.375894936756021","155.880739163386","-1","2013"
"71",2013-05-24 14:55:38,"52.9251731","5.429841","0","\N",27.9,"\N","25.2","2.6","18.8","14.6","0.62","0.32","-2.11","1.19","0101000020E610000074EB353D28B81540C9D177126C764A40",0,"2.22236360661346","1.80741858395313","171.732566441312","2","2013"
"72",2013-05-24 17:59:37,"52.9251677","5.4294292","-4","\N",18.8,"\N","15.2","3.8","16","28.5","-0.23","-0.41","-1.19","0.98","0101000020E61000002FCAC749BCB7154064682BE56B764A40",0,"1.27949208672817","0.634889290600095","-142.511158188736","-2","2013"
"73",2013-05-24 19:00:38,"52.9257636","5.4293723","-3","\N",20.2,"\N","70.9","2.8","6.6","7.8","-0.12","-0.05","-0.11","0.52","0101000020E6100000B33B495FADB71540E3E9F06B7F764A40",0,"0.170293863659264","0.050501072266976","-49.5351655313879","-1","2013"
"74",2013-05-24 20:00:47,"52.9258295","5.4305228","-3","\N",15.2,"\N","16.5","2.6","11.4","10.6","-0.14","-0.12","-0.02","0.51","0101000020E6100000BABA08F8DAB815400516C09481764A40",0,"0.185472369909914","0.151620443738797","-44.4681228642047","-1","2013"
"75",2013-05-24 21:02:08,"52.9257297","5.4301591","-6","\N",14.5,"\N","33.8","1.6","6.3","6.4","-0.18","0.03","-0.27","0.42","0101000020E6100000A34E8AA07BB81540CB37914F7E764A40",0,"0.325883414736006","0.0518305467019312","115.196081737483","-4","2013"
"76",2013-05-24 22:02:32,"52.9255622","5.4299636","-36","\N",20.3,"\N","10.3","2.4","6.4","19.6","-0.38","0.11","-0.54","0.74","0101000020E6100000B7E1C16048B81540F8B479D278764A40",0,"0.669402718847182","0.148948162632817","102.414601128666","-34","2013"
"77",2013-05-24 23:02:41,"52.9256969","5.4301947","-10","\N",19.1,"\N","19.3","1.9","19.7","15.2","-0.36","0.06","-0.09","1.06","0101000020E61000006FA69DF584B8154019C16B3C7D764A40",0,"0.37589892258425","0.245756260756266","22.4373682418296","-8","2013"
"78",2013-05-25 00:03:32,"52.9257088","5.4300969","2","\N",24,"\N","39.2","2.8","4.8","8.8","-0.35","0.08","-0.36","0.58","0101000020E6100000A5715E526BB8154049CF3EA07D764A40",0,"0.508428952755446","0.125429382410993","64.027888268087","4","2013"
"79",2013-05-25 01:03:40,"52.9257797","5.4303171","-1","\N",23.2,"\N","15.6","4.7","61.7","26.1","-1.79","1.47","0.37","3.38","0101000020E610000064A3BD0BA5B815407D66FFF27F764A40",0,"2.34561292629453","2.24022689442622","46.7904497279691","1","2013"
"80",2013-05-25 02:04:03,"52.925821","5.4305766","-1","\N",23.8,"\N","39.1","1.7","5.4","4.3","-0.15","0.04","-0.02","0.75","0101000020E610000006B17D12E9B815409A79724D81764A40",0,"0.156524758424985","0.117247860784976","27.4324591369853","1","2013"
"81",2013-05-25 03:04:27,"52.9247939","5.4293963","18","\N",16.1,"\N","15.6","2.4","6.5","15.5","0","0","0.05","0.61","0101000020E6100000F717E6A9B3B71540280582A55F764A40",0,"0.05","0.0301431394322629","0.0","20","2013"
"82",2013-05-25 04:04:20,"52.9253059","5.4295047","6","\N",18.7,"\N","9","1.9","9","10.8","-0.22","-0.09","-0.37","0.55","0101000020E6100000C5E97F14D0B71540DEA5796C70764A40",0,"0.43977266854592","0.0803415395852268","-121.11963527187","8","2013"
"83",2013-05-25 05:04:35,"52.9252216","5.4296057","-6","\N",21.5,"\N","24.4","1.7","11.2","8.1","-0.05","-0.1","-0.3","0.97","0101000020E610000064B37E8EEAB71540C2C650A96D764A40",0,"0.320156211871642","0.163823842496732","-144.634267602041","-4","2013"
"84",2013-05-25 06:04:45,"52.9252485","5.4296213","-6","\N",22.8,"\N","18.8","6.2","9.8","11.8","-1.36","-0.16","-0.66","1.15","0101000020E6100000F7A864A5EEB715402716F88A6E764A40",0,"1.52013157325279","0.695074599170896","-2.52278164842903","-4","2013"
"85",2013-05-25 07:05:08,"52.9253076","5.4298061","-4","\N",23.6,"\N","26.3","2.1","7.3","7.3","-0.65","-0.41","0.04","0.51","0101000020E6100000387C1C171FB81540C05EBC7A70764A40",0,"0.76954532030284","0.668283091497873","-31.2465750070961","-2","2013"
"86",2013-05-25 08:05:17,"52.9253751","5.4295302","-7","\N",22.3,"\N","19.7","7.3","33.4","15.7","-0.28","-0.35","-0.12","2.19","0101000020E6100000CE93C6C3D6B715403084F7B072764A40",0,"0.464004310324807","0.36713272026965","-61.2696656179978","-5","2013"
"87",2013-05-25 08:43:24,"52.9253905","5.4296155","-8","\N",28.1,"\N","18.9","7.6","20.8","14.9","-2.22","-1.59","-0.31","1.39","0101000020E6100000336B2920EDB71540B9C3263273764A40",0,"2.74819941052319","2.18231038713477","-38.9807702773215","-6","2013"
"88",2013-05-25 09:41:54,"52.9256097","5.4294665","-6","\N",31.7,"\N","9.3","1.8","14.2","12.3","-1.25","-0.27","-0.29","0.7","0101000020E61000000CE9F010C6B71540212EEF607A764A40",0,"1.31129706779204","0.851801824500957","-10.1775934083858","-4","2013"
"89",2013-05-25 10:12:02,"52.9255577","5.4295309","-5","\N",30.1,"\N","9.5","2.6","18.3","13.3","-0.05","-0.85","-1.54","0.9","0101000020E61000005C7CC0F2D6B71540CE07BAAC78764A40",0,"1.7597158861589","1.17807540681509","-134.417197110512","-3","2013"
"90",2013-05-25 10:42:28,"52.9254458","5.4296691","-7","\N",28.5,"\N","11.7","2.1","16.5","10.4","0.2","-0.73","-1.17","0.68","0101000020E61000003268322DFBB715403B9C0A0275764A40",0,"1.39348484024764","1.1002751729608","-137.336333493673","-5","2013"
"91",2013-05-25 11:14:08,"52.925603","5.4293516","-7","\N",29.2,"\N","39.9","2","8","8.2","-0.66","-0.08","-0.13","0.49","0101000020E6100000ECF021F2A7B715402D0ABB287A764A40",0,"0.677421582177598","0.452216368981523","-2.17887764232173","-5","2013"
"92",2013-05-25 11:29:05,"52.9256041","5.429404","-11","\N",28.3,"\N","9.3","1.9","9.6","9.9","-1.03","-0.35","-0.44","0.47","0101000020E61000001A16A3AEB5B715409245F5317A764A40",0,"1.17345643293648","0.631300497972213","-23.4249507983166","-9","2013"
"93",2013-05-25 11:43:58,"52.9256757","5.4293692","-7","\N",28,"\N","6.4","2.5","8","12.7","-0.76","-0.97","-0.88","0.62","0101000020E610000084A33F8FACB71540D819958A7C764A40",0,"1.51423247884861","0.90564402392581","-80.6992395361667","-5","2013"
"94",2013-05-25 12:14:03,"52.9254231","5.429509","-11","\N",29.9,"\N","19.6","5.7","7.8","20.2","-0.11","-0.05","-0.13","1.29","0101000020E6100000C5591135D1B7154042BB9E4374764A40",0,"0.177482393492988","0.0413878270280822","-72.0232684922797","-9","2013"
"95",2013-05-25 12:29:38,"52.9254189","5.4295544","-2","\N",24.7,"\N","8.4","3.3","15.5","19.9","-0.64","0.18","-0.25","0.89","0101000020E61000005F69CF1BDDB71540D64C632074764A40",0,"0.71028163428319","0.419330259673851","34.8720640392436","0","2013"
"96",2013-05-25 12:45:03,"52.9255914","5.4294859","-4","\N",24,"\N","7.7","2.6","10.5","13.5","-1.63","0.12","-0.81","0.81","0101000020E61000005D5FDA26CBB71540BC3A6CC779764A40",0,"1.8241162243673","0.842965250779999","18.9461386166941","-2","2013"
"97",2013-05-25 13:14:55,"52.9255132","5.4294362","-6","\N",25.6,"\N","8","2.7","10.9","10.7","-0.72","-0.91","-0.47","0.57","0101000020E6100000C2DF8A1FBEB7154016026F3777764A40",0,"1.25195846576474","0.91077434448376","-66.9066083833747","-4","2013"
"98",2013-05-25 13:30:01,"52.9255283","5.4294631","-3","\N",24.3,"\N","18","5.8","14.4","22.5","-0.46","-0.37","-0.28","1.53","0101000020E6100000E95AC52CC5B71540E1021AB677764A40",0,"0.653375848956785","0.394847422986682","-55.3492778931993","-1","2013"
"99",2013-05-25 13:45:04,"52.9255911","5.4293045","-1","\N",20.1,"\N","9.1","4.8","19.9","20.1","-3.2","2.92","2.08","1.85","0101000020E61000003F1A4E999BB71540FDFBE7C479764A40",0,"4.80549685256374","4.80456998561262","41.9164682741022","1","2013"
"100",2013-05-25 14:00:32,"52.9256649","5.4293771","-5","\N",21.8,"\N","41.2","1.6","6.6","6.1","-0.21","0.01","-0.16","0.36","0101000020E6100000F49A68A1AEB715400E47FC2F7C764A40",0,"0.264196896272458","0.075708875944906","23.2001438352402","-3","2013"
"101",2013-05-25 14:15:28,"52.9257481","5.4294997","-5","\N",19.8,"\N","9.5","1.6","9","7.2","-0.4","-0.17","-0.08","0.5","0101000020E61000003791F4C4CEB71540C5EAEAE97E764A40",0,"0.441927595879687","0.311392702590572","-24.9571050705157","-3","2013"
"102",2013-05-25 14:30:22,"52.9257286","5.4293197","-9","\N",22.5,"\N","7.6","1.7","11.5","8.6","-0.3","-0.06","-0.46","0.41","0101000020E6100000371D5C959FB7154066FC56467E764A40",0,"0.552449092677325","0.0466123347288582","-137.741850393533","-7","2013"
"103",2013-05-25 14:45:19,"52.9257873","5.4292622","-5","\N",23.6,"\N","8.7","2.1","13.3","15.4","-0.42","-0.14","-0.54","0.96","0101000020E6100000D4A2998290B71540AD46C03280764A40",0,"0.698283610003844","0.101358995603429","-79.4109167437514","-3","2013"
"104",2013-05-25 15:00:14,"52.9257118","5.4293069","-8","\N",22,"\N","7.8","3.5","11.9","16.1","-0.67","-0.08","-0.67","0.78","0101000020E6100000E0C95D3A9CB71540BA4269B97D764A40",0,"0.950894315894253","0.135273370220806","-6.89830782292487","-6","2013"
"105",2013-05-25 15:15:27,"52.9256997","5.4292742","-9","\N",23.3,"\N","8.9","3.1","8.7","11.5","-0.57","-0.21","-0.81","0.59","0101000020E6100000F610E8A793B7154061B5E8537D764A40",0,"1.01247222184117","0.156374475455694","-97.2442945080831","-7","2013"
"106",2013-05-25 15:32:30,"52.9256918","5.4293538","-6","\N",23.3,"\N","8.1","2.8","12.7","13.7","-0.52","-0.52","-0.62","0.78","0101000020E61000003FA7C585A8B715407396A3117D764A40",0,"0.961873172512884","0.474998952871933","-80.4860612267902","-4","2013"
"107",2013-05-25 15:47:42,"52.9256994","5.4294249","-5","\N",22.9,"\N","8.2","2.6","14.3","13.7","-0.16","-0.21","-1.17","0.98","0101000020E61000002F5A3629BBB71540A27664517D764A40",0,"1.1994165248153","0.594890882687312","-160.975431389548","-3","2013"
"108",2013-05-25 16:17:01,"52.9258351","5.4295847","-6","\N",17.6,"\N","7.3","2.1","11.1","11.1","-0.27","-0.42","-0.35","0.53","0101000020E6100000A972350DE5B7154094FEB9C381764A40",0,"0.609754048777046","0.394139410693804","-84.8812035969826","-4","2013"
"109",2013-05-25 16:32:31,"52.9254395","5.4292603","-3","\N",19.3,"\N","9.4","1.9","31.2","31.2","-0.02","-0.03","-0.01","1.3","0101000020E610000075E2170390B715409B7631CD74764A40",0,"0.0374165738677394","0.0304864988904311","-66.5714027962536","-1","2013"
"110",2013-05-25 16:47:31,"52.925683","5.429224","-4","\N",18.7,"\N","13.5","3","10.5","8.9","-0.07","-0.36","-0.91","0.75","0101000020E61000001AA20A7F86B7154049BBD1C77C764A40",0,"0.981121806912883","0.583714889026644","-142.941786047777","-2","2013"
"111",2013-05-25 17:02:25,"52.925725","5.429253","-9","\N",23.2,"\N","11.6","2.8","18","19.2","0.03","-0.97","-1.21","1.03","0101000020E6100000EDD632198EB71540780B24287E764A40",0,"1.55109638643122","1.18340024010151","-125.075717502933","-7","2013"
"112",2013-05-25 17:17:38,"52.9257998","5.4292648","-7","\N",16.9,"\N","28.7","1.6","7.1","6.8","-0.12","-0.29","-0.4","0.49","0101000020E6100000C24B153191B7154059D29B9B80764A40",0,"0.508428952755446","0.303776074579292","-114.0779143034","-5","2013"
"113",2013-05-25 17:32:29,"52.9256971","5.4292437","-8","\N",16.5,"\N","8","1.5","8.6","8.4","-0.09","-0.22","-0.44","0.5","0101000020E61000005F0E16A98BB715404340193E7D764A40",0,"0.500099990001999","0.275128009375353","-130.085043000654","-6","2013"
"114",2013-05-25 17:47:25,"52.9257915","5.4296427","-7","\N",16,"\N","8.1","2.7","10.5","10.2","-0.04","-0.25","-0.26","0.55","0101000020E61000004DDC8541F4B7154018B5FB5580764A40",0,"0.362904946232481","0.267071262624198","-113.406770600062","-5","2013"
"115",2013-05-25 18:02:22,"52.9257922","5.4295966","-4","\N",16.4,"\N","9.2","2.3","6.4","9.1","-0.11","-0.2","-0.29","0.49","0101000020E610000024E4CD2BE8B7154029F2DA5B80764A40",0,"0.369052841744919","0.202091560000792","-110.979867089734","-2","2013"
"116",2013-05-25 18:17:18,"52.925819","5.4295611","-6","\N",23,"\N","9.3","2.7","10.8","11.7","-0.25","-0.23","-0.42","0.65","0101000020E6100000FF8870DDDEB71540F981AB3C81764A40",0,"0.54018515344278","0.2086667865714","-100.287035014996","-4","2013"
"117",2013-05-25 18:32:16,"52.9257951","5.4293613","-5","\N",17.5,"\N","11.4","2.5","8.6","13.9","-0.48","-0.33","-0.5","0.67","0101000020E610000014AC167DAAB7154006A62E7480764A40",0,"0.76765877836445","0.301856973089092","-69.6968851526342","-3","2013"
"118",2013-05-25 18:47:09,"52.9259014","5.4293077","-4","\N",18.3,"\N","8.5","3.3","10.8","25.5","-0.16","-0.12","-0.11","1.57","0101000020E610000015AF0D709CB715400A29E4EF83764A40",0,"0.228254244210267","0.125536821102041","-56.2030254382805","-2","2013"
"119",2013-05-25 19:17:08,"52.9259006","5.4291752","-23","\N",20.2,"\N","15.7","3.1","24.3","34.5","-2.31","-1.05","-0.84","2.04","0101000020E61000005D0421B479B71540632C2EE983764A40",0,"2.67286363288515","1.6324722354268","-30.4261411398657","-21","2013"
"120",2013-05-25 19:48:08,"52.9258507","5.4292578","-3","\N",19,"\N","35.9","1.6","7.5","8.2","-0.31","0","-0.12","0.52","0101000020E61000002E36525B8FB7154046BD964682764A40",0,"0.332415402771893","0.176340465934633","9.57465749280081","-1","2013"
"121",2013-05-25 20:50:56,"52.9261213","5.4293035","-85","\N",20.6,"\N","12.3","3","19.5","21.2","-20.05","0.22","-11.7","3.13","0101000020E6100000BC3B32569BB7154083D08B248B764A40",0,"23.2151006889912","9.10473730895993","13.4393972016922","-83","2013"
"122",2013-05-25 21:21:28,"52.9257971","5.4292356","-11","\N",20.6,"\N","20.5","7.7","7.3","27.1","-0.5","-0.21","-0.66","1.42","0101000020E6100000A21D818989B71540A69DF58480764A40",0,"0.854224794770089","0.16245404928465","-84.6628833704992","-9","2013"
"123",2013-05-25 21:51:49,"52.9258136","5.4292251","-12","\N",21.3,"\N","17.9","5.2","5.4","10.2","-0.11","-0.06","-0.08","1.02","0101000020E6100000447DDCC886B7154094185F0F81764A40",0,"0.148660687473185","0.0658786714326804","-48.4774947082196","-10","2013"
"124",2013-05-25 22:22:08,"52.9258127","5.4292508","-7","\N",19,"\N","29.1","1.6","4.4","4.8","-0.19","-0.06","-0.34","0.37","0101000020E61000009A208F858DB71540595CD20781764A40",0,"0.394081209904761","0.0647785110880774","-139.867254976527","-5","2013"
"125",2013-05-25 22:52:13,"52.9258387","5.4292264","-6","\N",19.7,"\N","10.3","1.5","5.8","7.1","-0.28","0","-0.3","0.39","0101000020E6100000BB511A2087B7154082EFECE181764A40",0,"0.410365690573664","0.0492714057223073","32.5262154136638","-4","2013"
"126",2013-05-25 23:22:04,"52.9258294","5.4292398","-7","\N",19.9,"\N","9.5","1.9","4.6","7.9","-0.22","-0.11","-0.41","0.58","0101000020E6100000FB905CA38AB715407056E99381764A40",0,"0.478121323515277","0.109443362601768","-125.866740834122","-5","2013"
"127",2013-05-25 23:51:56,"52.925817","5.4292617","0","\N",18.3,"\N","9.7","3","11","13.8","0","-0.04","-0.02","0.57","0101000020E610000092B30B6190B71540598AE42B81764A40",0,"0.0447213595499958","0.0408331970250609","-102.786786882608","2","2013"
"128",2013-05-26 00:21:46,"52.9258273","5.4292472","-5","\N",18.5,"\N","7.9","3.2","10.2","15.2","-0.52","-0.51","-0.56","0.85","0101000020E61000002999F7938CB715403B9F4B8281764A40",0,"0.918749149659471","0.472453706293605","-76.0460154474802","-3","2013"
"129",2013-05-26 00:51:50,"52.9258194","5.4292749","-3","\N",19,"\N","20.1","6.9","20.1","23","-0.27","-0.4","-0.2","1.57","0101000020E610000085F9E1D693B715404D80064081764A40",0,"0.522398315464359","0.392773224521538","-71.5842131489903","-1","2013"
"130",2013-05-26 01:22:39,"52.9258174","5.4292398","-6","\N",19.9,"\N","34.5","1.7","5.9","5.4","-0.11","-0.07","-0.14","0.38","0101000020E6100000FB905CA38AB71540AC883F2F81764A40",0,"0.19131126469709","0.0598503225791815","-82.0711841891786","-4","2013"
"131",2013-05-26 01:53:13,"52.9258071","5.4292478","-7","\N",18.4,"\N","7.6","1.7","6.2","6.9","-0.26","0.17","-0.74","0.52","0101000020E610000011853BBC8CB71540CA73D8D880764A40",0,"0.802558409089332","0.31826673310464","142.479773273013","-5","2013"
"132",2013-05-26 02:23:21,"52.9258024","5.4292409","-4","\N",17.9,"\N","7.8","2.1","9","9.1","-0.24","-0.25","-0.58","0.54","0101000020E6100000246C2EED8AB7154077476BB180764A40",0,"0.675647837264355","0.266075348707292","-121.785684653269","-2","2013"
"133",2013-05-26 02:53:47,"52.925881","5.4293033","-4","\N",18,"\N","10","3.6","20.5","9.4","-0.16","-0.7","-0.09","1.2","0101000020E61000006F42C6489BB715406F7EC34483764A40",0,"0.723671196055225","0.693207509719995","-79.5550730757112","-2","2013"
"134",2013-05-26 03:23:48,"52.9258486","5.4291199","-9","\N",17.8,"\N","19.2","7.6","19","11.6","-0.65","-1.3","-0.24","1.58","0101000020E61000004C4002356BB715401106F93482764A40",0,"1.47312592808626","1.31913622472339","-69.1397231277522","-7","2013"
"135",2013-05-26 03:39:32,"52.9253026","5.4294709","-5","\N",17.7,"\N","19.1","7.4","13.6","9.3","-0.56","-0.62","-0.07","1.38","0101000020E6100000B2553838C7B71540AFF3CA5070764A40",0,"0.838391316748927","0.721328221565729","-51.4634658661279","-3","2013"
"136",2013-05-26 03:54:44,"52.9258297","5.4290855","-9","\N",19.4,"\N","19.4","7.6","19.7","12.1","-0.67","-0.92","-0.24","1.15","0101000020E610000051C0763062B715402F956D9681764A40",0,"1.16314229568011","0.967218125850183","-61.8086628483847","-6","2013"
"137",2013-05-26 04:10:32,"52.9258112","5.4290927","-6","\N",18.6,"\N","39.5","1.8","3.8","4.9","-0.13","0","-0.18","0.41","0101000020E610000032CFA51364B71540A0223DFB80764A40",0,"0.222036033111745","0.0133760629213892","113.141395597231","-3","2013"
"138",2013-05-26 04:25:45,"52.9258947","5.429175","-7","\N",19.9,"\N","8.6","1.7","6.1","8.9","-0.09","-0.03","-0.26","0.6","0101000020E61000000F0BB5A679B715401605B0B783764A40",0,"0.276767050061961","0.0856929530579152","-165.573024763471","-5","2013"
"139",2013-05-26 05:04:40,"52.9259107","5.4290756","-7","\N",20,"\N","8","1.5","8.1","6.7","-0.35","-0.06","-0.24","0.37","0101000020E6100000DB0B16985FB715401CC2E73D84764A40",0,"0.428602379834737","0.140389211039089","-10.928743472577","-5","2013"
"140",2013-05-26 05:19:53,"52.925897","5.4291722","-6","\N",20.7,"\N","9.1","1.3","12","8.5","-0.16","-0.09","-0.12","0.45","0101000020E6100000D468CDEA78B71540753BFBCA83764A40",0,"0.219317121994613","0.0965957232699837","-50.4274944028205","-4","2013"
"141",2013-05-26 05:35:04,"52.9259369","5.4291323","-5","\N",20.4,"\N","8.2","3.3","27.5","17.3","-0.04","-0.17","-0.48","1.33","0101000020E610000009A128756EB715406FD4AF1985764A40",0,"0.510783711564885","0.295437313561939","-145.942352500093","-3","2013"
"142",2013-05-26 05:50:00,"52.9258226","5.4292258","-5","\N",21.9,"\N","8.3","4","19.1","22.4","-0.75","-0.41","-0.49","1.03","0101000020E6100000D365D6F786B71540E772DE5A81764A40",0,"0.985241087247177","0.472691964996752","-45.5087895614313","-3","2013"
"143",2013-05-26 06:05:14,"52.9257796","5.4292622","-11","\N",23.5,"\N","10.4","4.2","23.3","28.7","-0.79","-0.12","-0.28","1.16","0101000020E6100000D4A2998290B71540E8A628F27F764A40",0,"0.846699474429978","0.469871495138649","-5.4607057098902","-9","2013"
"144",2013-05-26 06:20:08,"52.9257045","5.4292437","-8","\N",22.1,"\N","8.5","4.3","12.5","12.2","-1.3","-0.67","-0.45","0.99","0101000020E61000005F0E16A98BB7154049A12C7C7D764A40",0,"1.53016338996854","0.977258611114255","-33.8245704723346","-6","2013"
"145",2013-05-26 06:35:31,"52.925799","5.4292006","-18","\N",18.6,"\N","35.6","2.2","5.5","7.6","0.12","-0.03","0.13","0.85","0101000020E6100000BEB1B15C80B71540B2D5E59480764A40",0,"0.179443584449264","0.0437547421031873","-109.600711969883","-16","2013"
"146",2013-05-26 06:50:48,"52.9258654","5.4291144","-9","\N",20.6,"\N","8.7","2.4","5.8","8.7","-0.99","-0.62","-0.38","0.67","0101000020E61000007CF8E8C369B71540BDBFE6C182764A40",0,"1.22837290754884","0.799367002784071","-40.9163543978259","-7","2013"
"147",2013-05-26 07:05:43,"52.9259031","5.4291799","-13","\N",24.2,"\N","7.8","2.3","8","20.3","-0.55","0.27","-0.64","0.8","0101000020E6100000F7668AEF7AB71540ECE126FE83764A40",0,"0.886002257333468","0.32228773763781","84.5431931875673","-11","2013"
"148",2013-05-26 07:20:39,"52.925899","5.4291075","-7","\N",22.4,"\N","7.9","2.2","5.6","10","-0.54","-0.14","-0.61","0.46","0101000020E61000008FDFDBF467B715401633C2DB83764A40",0,"0.826619622317303","0.113755124282752","-50.9008876466806","-5","2013"
"149",2013-05-26 07:35:35,"52.9259928","5.4289801","-6","\N",16.4,"\N","8","2","9.4","9","-0.37","-0.21","-0.39","0.45","0101000020E61000000C8A308F46B715406E2A9CEE86764A40",0,"0.577148161220323","0.189375011085786","-66.792581033635","-4","2013"
"150",2013-05-26 07:50:31,"52.9259356","5.4290588","-2","\N",19.8,"\N","8.1","1.9","8.3","7.2","-0.26","-0.09","-0.11","0.38","0101000020E6100000783EA8305BB71540E019C80E85764A40",0,"0.296310647800581","0.16072187777604","-23.8538861034447","0","2013"
"151",2013-05-26 08:05:59,"52.9259005","5.4290274","2","\N",20.7,"\N","40.2","2.5","9.2","12","-0.37","0.11","-0.17","0.86","0101000020E6100000055A70F552B71540CE6C57E883764A40",0,"0.421781934179263","0.233254921638155","38.2833309556236","4","2013"
"152",2013-05-26 08:20:55,"52.9260624","5.4289091","-3","\N",24.2,"\N","8.4","2.6","9.1","10.7","-0.64","0.03","-0.3","0.66","0101000020E6100000C2D375F233B715401307753689764A40",0,"0.70746024623296","0.337555279975668","15.5367298099673","-1","2013"
"153",2013-05-26 08:35:51,"52.926051","5.429047","-7","\N",22.8,"\N","8.6","2.4","8.9","11.6","-0.8","-0.28","-0.43","0.74","0101000020E6100000A3C9C51858B71540CCB6D3D688764A40",0,"0.950420959364849","0.446213951446496","-27.0687113318449","-5","2013"
"154",2013-05-26 08:50:47,"52.9261053","5.4289307","-5","\N",22.6,"\N","8.7","2.2","6.6","12.7","-0.45","-0.12","-0.33","0.62","0101000020E61000006600039C39B715407E13549E8A764A40",0,"0.570788927713213","0.184345006852855","-24.6504252775543","-3","2013"
"155",2013-05-26 09:05:42,"52.9259677","5.4290609","-9","\N",19.8,"\N","7.8","3.7","10.6","13.9","-0.67","-0.32","-0.71","0.77","0101000020E610000024F895BD5BB7154080530E1C86764A40",0,"1.02732662770903","0.285613119652901","-63.3067160151038","-7","2013"
"156",2013-05-26 09:20:54,"52.9260406","5.4289361","-6","\N",23.2,"\N","7.9","3.3","9.1","14.6","-0.95","-0.56","-0.99","0.78","0101000020E61000008E4B66063BB7154055E2957F88764A40",0,"1.48195816405187","0.508591111175856","-66.8410466609622","-4","2013"
"157",2013-05-26 09:35:51,"52.926035","5.4289048","-14","\N",27.2,"\N","9","3","7.4","11.2","-0.83","-0.58","-0.88","0.66","0101000020E6100000C263E4D132B71540C6F99B5088764A40",0,"1.34152897844214","0.527862872100587","-70.9226124694376","-12","2013"
"158",2013-05-26 09:50:48,"52.9261305","5.428955","-4","\N",27.7,"\N","10.1","2.9","8.5","10.9","-1.21","-0.32","-0.33","0.7","0101000020E61000009ED2C1FA3FB7154000AAB8718B764A40",0,"1.29437243481156","0.812349565125481","-14.5501759469391","-2","2013"
"159",2013-05-26 10:05:42,"52.9262534","5.42898","-8","\N",24.5,"\N","8.2","3.4","15.9","19.6","-0.45","-0.83","-1.24","0.87","0101000020E6100000658D7A8846B715408767AE788F764A40",0,"1.55852494365666","0.849357109318208","-112.676005176886","-6","2013"
"160",2013-05-26 10:22:47,"52.926255","5.4290625","-5","\N",26.6,"\N","9.3","4.3","15.4","9.7","-0.98","-1.07","-0.1","0.88","0101000020E61000008FC2F5285CB71540D4601A868F764A40",0,"1.45440709569226","1.25854303892174","-50.5971747259683","-3","2013"
"161",2013-05-26 10:37:52,"52.9262437","5.4292397","-5","\N",23.4,"\N","18.5","7.4","13.6","7.2","-0.13","-0.11","0.01","1.5","0101000020E61000005494A69C8AB7154022D04F278F764A40",0,"0.17058722109232","0.152565498130234","-39.5792802659039","-3","2013"
"162",2013-05-26 10:53:09,"52.9262244","5.4291505","-7","\N",26.5,"\N","23.5","2.7","11.9","6.7","-0.19","-0.1","-0.11","0.67","0101000020E61000008A3F8A3A73B71540ED6069858E764A40",0,"0.241246761636296","0.123068893754661","-41.5165769697747","-5","2013"
"163",2013-05-26 11:08:22,"52.9261881","5.429071","-4","\N",22,"\N","8.7","2.7","10.9","10.8","-0.95","-0.18","-0.37","0.66","0101000020E6100000E8A562635EB71540E1B8E7548D764A40",0,"1.03527774051218","0.552370060859926","-9.30469427910269","-2","2013"
"164",2013-05-26 11:23:21,"52.9262955","5.4293197","-12","\N",23.2,"\N","11.8","2.6","18.8","20.1","-2.49","-0.36","-0.5","1.35","0101000020E6100000371D5C959FB715404B77D7D990764A40",0,"2.56509259092143","1.70793574813944","-4.122657847966","-10","2013"
"165",2013-05-26 11:38:14,"52.9262397","5.4292236","-11","\N",23.7,"\N","8.9","4","16.5","19","-0.47","-0.83","-0.7","0.78","0101000020E610000080AF326486B71540E1E0C1058F764A40",0,"1.18313143817583","0.781931890394356","-88.9756295801997","-9","2013"
"166",2013-05-26 11:53:55,"52.9263728","5.4291633","-4","\N",22,"\N","37.9","2.4","6.6","9.9","0.11","0.01","0.13","0.57","0101000020E6100000E192889576B71540B5F3476293764A40",0,"0.17058722109232","0.00976712703709257","-177.344513604274","-2","2013"
"167",2013-05-26 12:09:08,"52.926284","5.4290002","-8","\N",17.9,"\N","23","1.9","5.4","9.3","-0.12","-0.07","-0.23","0.58","0101000020E6100000EBE813D44BB715406F675F7990764A40",0,"0.268700576850888","0.0696485880565173","-123.120174071826","-6","2013"
"168",2013-05-26 12:26:13,"52.9263064","5.4289577","-8","\N",21.7,"\N","8.3","1.9","6.6","10.6","-0.39","-0.17","-0.45","0.55","0101000020E61000003278F3AF40B71540AA09473591764A40",0,"0.619273768215642","0.141942734776924","-68.8026401144087","-6","2013"
"169",2013-05-26 12:41:09,"52.9263084","5.4292266","-5","\N",22.3,"\N","8.4","1.7","6.7","10","-0.47","-0.29","-0.51","0.52","0101000020E6100000084B862D87B715404B010E4691764A40",0,"0.751731334986111","0.259516861034296","-70.2358800096391","-3","2013"
"170",2013-05-26 12:56:05,"52.9262124","5.4294088","-6","\N",28.2,"\N","8.5","1.6","6.3","7.8","-0.47","-0.42","-0.46","0.45","0101000020E61000005B75C2F0B6B715402893BF208E764A40",0,"0.780320446995976","0.394867548301438","-71.129678903342","-4","2013"
"171",2013-05-26 13:11:01,"52.926101","5.4293668","-7","\N",28.3,"\N","8.6","1.4","6.7","9.5","-0.44","0.41","-1.72","1.05","0101000020E6100000E4F32FEEABB715407EE5417A8A764A40",0,"1.82211415668723","0.847559463077598","147.947799815616","-5","2013"
"172",2013-05-26 13:25:57,"52.9261198","5.4293738","-9","\N",27.5,"\N","8.7","2.2","12","11.9","-1","0.59","-0.39","0.72","0101000020E61000007709F3C3ADB71540CB96F6178B764A40",0,"1.22482651832821","0.854358805571445","52.9610635694037","-7","2013"
"173",2013-05-26 13:40:54,"52.9261304","5.4296337","-12","\N",18.8,"\N","9.8","2","10.6","10.7","-5.71","8.86","0.75","1.28","0101000020E6100000B4098BE5F1B715406BEAE1708B764A40",0,"10.5672229085981","10.3087279449738","65.2333336923626","-10","2013"
"174",2013-05-26 13:55:49,"52.9262851","5.4291601","-12","\N",28.3,"\N","8.9","1.8","11","9","-1.02","0.42","-0.3","0.62","0101000020E61000000BFEC8BE75B71540D4A2998290764A40",0,"1.14315353299546","0.788652751240032","40.7329667657151","-10","2013"
"175",2013-05-26 14:11:08,"52.926274","5.4289758","-4","\N",24.6,"\N","32","1.4","6.2","5.6","-0.17","-0.03","-0.07","0.33","0101000020E61000000C1A9F6E45B715404B917C2590764A40",0,"0.186279360101972","0.09608695104443","-8.24617771167064","-2","2013"
"176",2013-05-26 14:26:38,"52.9262559","5.4293191","-4","\N",26.2,"\N","7.8","1.4","9","8.6","-0.47","-0.6","-0.37","0.44","0101000020E61000004F31186D9FB71540101DA78D8F764A40",0,"0.847230783199005","0.586405654328499","-70.5197865566046","-2","2013"
"177",2013-05-26 14:41:52,"52.9262534","5.4293297","-3","\N",24.2,"\N","7.5","2.7","13.1","15.7","-0.23","-0.71","-0.79","0.81","0101000020E610000054CE7234A2B715408767AE788F764A40",0,"1.08678424721745","0.725864080970964","-109.304450054667","-1","2013"
"178",2013-05-26 14:56:53,"52.9262107","5.4291748","-4","\N",22.3,"\N","9.3","3","13.2","13.7","-0.14","-0.46","-0.66","0.82","0101000020E6100000C211499979B7154046DA7C128E764A40",0,"0.816578226503744","0.511105847887588","-119.534952693554","-2","2013"
"179",2013-05-26 15:11:49,"52.9259052","5.4290053","-10","\N",24.1,"\N","9.4","4.4","25.5","28.9","-1.17","-2.16","-1.69","1.55","0101000020E6100000203E552A4DB715402299C40F84764A40",0,"2.98171091824811","2.04093979540229","-87.9349132142176","-8","2013"
"180",2013-05-26 15:26:45,"52.9257679","5.4292814","-2","\N",29.7,"\N","9.5","4.6","20.3","22","0.09","0.05","-0.12","0.91","0101000020E6100000D71F178B95B71540E21703907F764A40",0,"0.158113883008419","0.153259688316744","164.382307144347","0","2013"
"181",2013-05-26 15:56:36,"52.9255636","5.4295003","-5","\N",28.8,"\N","8.8","3.6","11.7","12.6","-0.8","-1.02","-0.89","0.67","0101000020E61000001F7D38EDCEB715401B2F38DE78764A40",0,"1.57241851935164","0.956044871989343","-79.3989025926664","-3","2013"
"182",2013-05-26 16:11:32,"52.9254783","5.4293051","-11","\N",26.5,"\N","8.9","3.2","17.4","17.1","-0.19","-1.18","-2.23","1.1","0101000020E6100000270692C19BB715402FD4AB1276764A40",0,"2.53009881229963","1.59926820433412","-133.673522652767","-9","2013"
"183",2013-05-26 16:41:36,"52.9257158","5.4294364","-11","\N",26.6,"\N","21.1","4.3","13","13.7","-0.18","-0.23","-1.39","1.18","0101000020E610000010D9F62CBEB71540FB31F7DA7D764A40",0,"1.42035206903077","0.709998304809207","-162.632295063913","-9","2013"
"184",2013-05-26 16:56:35,"52.9262571","5.4293272","-12","\N",17.5,"\N","8.1","4.2","10.3","12.6","-0.18","-0.31","-0.65","0.74","0101000020E61000000D22AD8CA1B715400A18B8978F764A40",0,"0.742293742395825","0.368587183445232","-127.714445307805","-10","2013"
"185",2013-05-26 17:11:43,"52.9261207","5.4287938","-12","\N",16.2,"\N","20.2","3.9","8.3","10.1","-0.12","-0.35","-0.36","0.84","0101000020E610000007E9CEB815B715400653831F8B764A40",0,"0.516236379965612","0.350287431045016","-105.785463182768","-10","2013"
"186",2013-05-26 17:26:54,"52.9263696","5.4290467","-13","\N",18.5,"\N","19.4","7.1","11.9","12.6","-0.14","-1.03","-0.92","1.08","0101000020E6100000AFD3A30458B715401A01704793764A40",0,"1.38812823615111","1.07616118467028","-109.863656917372","-11","2013"
"187",2013-05-26 17:42:05,"52.9262169","5.4287267","-10","\N",19.3,"\N","18.6","7.7","14.6","12.5","-0.18","-1.12","-0.96","1.08","0101000020E610000022B0CD2104B7154052407F468E764A40",0,"1.48606863906079","1.15275376895565","-107.738710353171","-8","2013"
"188",2013-05-26 17:57:16,"52.926176","5.4290385","3","\N",19.1,"\N","17.7","6","15","12.2","-0.02","-0.25","-0.2","1.12","0101000020E61000004BE658DE55B71540882B67EF8C764A40",0,"0.320780298646909","0.261468500048884","-109.158909081301","5","2013"
"189",2013-05-26 18:12:38,"52.9258411","5.4292853","-5","\N",16.4,"\N","27.8","1.5","5.8","8.3","-0.11","-0.11","-0.25","0.55","0101000020E61000003C9DD09096B7154076E50EF681764A40",0,"0.294448637286709","0.113356425139829","-119.047026807902","-3","2013"
"190",2013-05-26 18:42:26,"52.9258486","5.4292256","-5","\N",20.7,"\N","8","2.1","5.9","10.1","-0.45","-0.14","-0.68","0.54","0101000020E6100000856C6AEA86B715401106F93482764A40",0,"0.827345151674922","0.105491594553126","-113.42831527655","-3","2013"
"191",2013-05-26 19:12:19,"52.9258564","5.4292206","-4","\N",19.7,"\N","9.2","2.1","7.9","10.2","-0.16","-0.05","-0.26","0.55","0101000020E6100000F713DF9A85B715406A65677682764A40",0,"0.30935416596516","0.0432387891153957","-126.767974954162","-2","2013"
"192",2013-05-26 19:42:12,"52.9258673","5.4292196","-6","\N",19,"\N","10.5","2","9.7","13.5","-0.11","-0.23","-0.74","0.74","0101000020E61000007435C35785B71540C9F7D6D182764A40",0,"0.78268767717398","0.40534557955377","-147.371125373361","-4","2013"
"193",2013-05-26 20:12:07,"52.9258836","5.4292297","-4","\N",18.2,"\N","13.7","1.7","22.4","20.3","0.06","-0.5","-1.22","1.07","0101000020E610000037E38FFD87B715408DF3925A83764A40",0,"1.31984847615171","0.899469531391075","-145.964886191083","-2","2013"
"194",2013-05-26 20:42:48,"52.925881","5.4291932","-7","\N",19.3,"\N","30.9","5.5","15.9","10.3","-0.44","-0.22","-0.06","1.23","0101000020E610000090A9166C7EB715406F7EC34483764A40",0,"0.495580467734555","0.374580879455979","-28.2648843216652","-5","2013"
"195",2013-05-26 21:13:08,"52.9258596","5.4292314","-7","\N",19.5,"\N","27","1.9","4.8","5.2","-0.07","-0.16","-0.38","0.44","0101000020E610000049AAA56F88B7154005583F9182764A40",0,"0.41821047332653","0.222162513027091","-136.595034686171","-5","2013"
"196",2013-05-26 21:43:12,"52.9258695","5.4292408","-6","\N",19.5,"\N","7.4","2.1","5","7","-0.15","-0.14","-0.64","0.46","0101000020E61000007D6F78E68AB71540936E4BE482764A40",0,"0.672086303981862","0.285067498510269","-153.95211070719","-4","2013"
"197",2013-05-26 22:13:21,"52.9258478","5.4292433","-6","\N",19.5,"\N","8.6","1.9","5.6","5.8","-0.06","-0.04","-0.18","0.42","0101000020E6100000C51B3E8E8BB715406A09432E82764A40",0,"0.193907194296653","0.0671627739247681","-149.44465605614","-4","2013"
"198",2013-05-26 22:43:12,"52.9258414","5.4292526","-8","\N",18,"\N","7.8","1.7","8","9.5","-0.13","-0.1","-0.82","0.65","0101000020E610000052E45AFE8DB71540352493F881764A40",0,"0.836241591885981","0.393329945082484","-167.183632762614","-6","2013"
"199",2013-05-26 23:13:05,"52.9258312","5.4292732","-11","\N",18.2,"\N","9","1.4","8.7","8.9","-0.06","-0.02","-0.14","0.69","0101000020E61000007332CC6493B71540E7CE02A381764A40",0,"0.153622914957372","0.0379987564568026","-158.002157169682","-9","2013"
"200",2013-05-26 23:43:06,"52.9258354","5.4292719","-11","\N",19.5,"\N","18.2","8","17.6","6.4","-0.44","-1.26","-0.18","1.3","0101000020E6100000FC5D8E0D93B71540523D3EC681764A40",0,"1.34669966956259","1.25842537295116","-74.5100333851289","-9","2013"
"201",2013-05-27 00:13:38,"52.9258605","5.429229","-4","\N",19.7,"\N","42.4","1.6","4.4","6.4","-0.3","-0.18","-0.46","0.41","0101000020E6100000A9FA95CE87B715404014CC9882764A40",0,"0.577927331071996","0.15293814172574","-99.5747322640353","-2","2013"
"202",2013-05-27 00:43:27,"52.9258685","5.4292294","-1","\N",19.3,"\N","7.7","1.4","6.8","10.6","-0.39","-0.43","-0.63","0.46","0101000020E610000043ED6DE987B71540C3F2E7DB82764A40",0,"0.856679636737094","0.392970257444842","-95.4854805253031","1","2013"
"203",2013-05-27 01:13:19,"52.9258547","5.4292249","-6","\N",19.4,"\N","7.9","1.3","7.4","9.1","-0.43","-0.45","-0.55","0.56","0101000020E6100000F78370BB86B7154088AC246882764A40",0,"0.830602191184203","0.409659945268331","-83.8421911219127","-4","2013"
"204",2013-05-27 01:43:22,"52.9258605","5.4292412","-4","\N",19,"\N","19.1","5.3","7.6","8.4","-0.19","-0.24","-0.13","1.13","0101000020E6100000186250018BB715404014CC9882764A40",0,"0.332565782966318","0.238823076383327","-67.69037158058","-2","2013"
"205",2013-05-27 02:13:37,"52.9258507","5.4292444","-5","\N",19,"\N","26.3","1.6","11.3","9","-0.2","-0.37","-0.17","0.57","0101000020E6100000EEF60FD88BB7154046BD964682764A40",0,"0.45365184888855","0.359442673449031","-76.4356736789796","-3","2013"
"206",2013-05-27 02:43:43,"52.9259194","5.4289745","-6","\N",14.2,"\N","8.6","2.6","7.4","6.6","-2.94","2.12","2","0.61","0101000020E61000009545611745B71540B0DDE28684764A40",0,"4.1398067587751","4.13953091186214","35.2421770440132","-4","2013"
"207",2013-05-27 03:13:36,"52.9259264","5.4291789","-10","\N",22.1,"\N","9.8","4.6","16.1","21.4","-1.21","-1.51","-0.32","1.34","0101000020E610000074886EAC7AB7154063409BC184764A40",0,"1.96127509544174","1.64523504554716","-57.5755437545464","-8","2013"
"208",2013-05-27 03:43:27,"52.9254637","5.429574","-3","\N",22,"\N","9","4","11.2","11.6","-0.72","-0.63","-0.32","0.94","0101000020E6100000FDD8243FE2B715404D91329875764A40",0,"1.00881118153994","0.703174795703184","-52.6581334863481","-1","2013"
"209",2013-05-27 04:13:22,"52.9256203","5.4292888","-12","\N",20.9,"\N","12.2","4.1","16.4","28.2","-0.25","-0.63","-1.07","1.72","0101000020E61000000628B27B97B71540C181DAB97A764A40",0,"1.26660964783946","0.723446826300707","-123.464498998043","-10","2013"
"210",2013-05-27 04:43:13,"52.9258697","5.429322","-9","\N",24.3,"\N","11.4","3","22.7","18.6","-0.16","-1.48","-1.87","1.7","0101000020E610000031D0B52FA0B71540BDEDF8E582764A40",0,"2.39016735815716","1.70759084359775","-121.354512107767","-7","2013"
"211",2013-05-27 05:13:03,"52.9259719","5.4291985","-5","\N",28,"\N","9.6","1.8","7.3","5.4","-0.31","-0.18","-0.18","0.33","0101000020E610000012F8C3CF7FB71540EBC1493F86764A40",0,"0.401123422402632","0.212957284727253","-44.7259797206245","-3","2013"
"212",2013-05-27 05:43:08,"52.9261012","5.4290959","-10","\N",28,"\N","22.8","2.1","4.6","5.4","-0.27","-0.13","-0.27","0.42","0101000020E6100000086465EA64B71540A764EF7B8A764A40",0,"0.403360880601974","0.120712739946983","-59.3706910345259","-8","2013"
"213",2013-05-27 06:13:03,"52.9260135","5.4289687","-3","\N",30,"\N","10.1","2.4","11.1","9.2","-0.64","-1.13","-0.73","0.68","0101000020E6100000D207269243B71540C713419C87764A40",0,"1.48976508215222","1.0753999133092","-81.7904339466885","-1","2013"
"214",2013-05-27 06:42:56,"52.9262469","5.4288748","-6","\N",30.4,"\N","11.3","3.2","14.8","13.1","-0.62","-0.03","-2.39","0.8","0101000020E61000006D50A0F42AB71540BDC227428F764A40",0,"2.46929139633215","0.946512772406585","178.25680165845","-4","2013"
"215",2013-05-27 07:42:57,"52.9259084","5.4290654","-7","\N",29,"\N","12.8","2.4","16.8","10.7","-0.45","-0.73","-1.26","0.68","0101000020E6100000716193EB5CB71540BC8B9C2A84764A40",0,"1.5241391012634","0.76714306814303","-116.897854570572","-5","2013"
"216",2013-05-27 08:13:32,"52.9254798","5.4293979","-4","\N",31.5,"\N","39.9","3.8","13.7","10.6","0.12","-0.19","-0.77","0.75","0101000020E610000062E24515B4B71540E70D411F76764A40",0,"0.802122185206219","0.580867623617939","-159.80742813271","-2","2013"
"217",2013-05-27 08:43:24,"52.9255671","5.4294442","-1","\N",39.6,"\N","8.2","2.8","31.8","11.7","0.33","-0.82","-0.51","1.3","0101000020E6100000D9D36938C0B71540756094FB78764A40",0,"1.02049007834471","0.98795391565612","-120.920655982925","1","2013"
"218",2013-05-27 09:14:39,"52.92526","5.4294076","2","\N",36.2,"\N","27.4","2","7.7","10.3","-0.16","0.02","-0.24","0.74","0101000020E61000008B9D3AA0B6B71540032670EB6E764A40",0,"0.289136645896019","0.0399215489800274","118.603251458957","4","2013"
"219",2013-05-27 09:44:30,"52.9251601","5.4296488","-1","\N",35,"\N","10.6","1.6","8.6","9.8","-1.66","-0.84","-0.61","0.6","0101000020E61000000510E3DAF5B7154034886AA56B764A40",0,"1.95788150816131","1.22056206870266","-33.8091935758928","1","2013"
"220",2013-05-27 10:14:21,"52.9255078","5.4293584","-7","\N",41,"\N","9.8","3.9","21.4","11.7","-0.68","-0.95","-0.02","0.97","0101000020E6100000320D79BAA9B71540B198220A77764A40",0,"1.16846052564903","1.06610507134508","-55.7658431423546","-5","2013"
"221",2013-05-27 10:44:39,"52.9255887","5.4294038","-5","\N",42.3,"\N","35.9","1.5","4.9","6.2","0.02","-0.01","0","0.38","0101000020E6100000CD1C37A1B5B715400906C6B079764A40",0,"0.0223606797749979","0.0192171100038259","-141.93835699996","-3","2013"
"222",2013-05-27 11:14:34,"52.9256658","5.4293348","7","\N",34.2,"\N","7.2","1.6","10.7","11.5","-0.96","-1.47","-0.93","0.55","0101000020E61000008923B48AA3B71540490389377C764A40",0,"1.98680648277581","1.40776867521633","-77.1609396734105","9","2013"
"223",2013-05-27 11:44:29,"52.9254917","5.4295508","22","\N",36.4,"\N","10.5","3.1","10.9","23.9","-0.99","-0.78","-1.3","1.13","0101000020E6100000EFE1372ADCB71540171C148376764A40",0,"1.81066286204804","0.685589344721448","-84.8529059930599","24","2013"
"224",2013-05-27 12:14:20,"52.9253448","5.4293935","-44","\N",43.9,"\N","9.7","2.7","13.5","24","-0.32","-0.2","-0.22","1.05","0101000020E6100000BC75FEEDB2B7154007C3CAB271764A40",0,"0.436806593356831","0.217189841496191","-51.0152655559611","-42","2013"
"225",2013-05-27 12:44:11,"52.9255222","5.4292021","-63","\N",42,"\N","8.8","1.9","10.8","11.4","-0.79","-1.04","-0.69","0.59","0101000020E6100000837F5BC180B715406A5CEE8277764A40",0,"1.47709173716462","1.00341363142816","-73.2001145475597","-61","2013"
"226",2013-05-27 13:14:07,"52.9252554","5.4299027","-28","\N",38.7,"\N","13.1","2.1","11.3","9.9","-1.19","0.29","-0.91","0.62","0101000020E610000031D9D36938B8154044B9D9C46E764A40",0,"1.52587679712354","0.549032437563876","46.9646591869653","-26","2013"
"227",2013-05-27 13:44:15,"52.92536","5.4297715","-30","\N",32.7,"\N","13.2","2.6","22.4","26.6","-0.8","0.96","-2.24","1.48","0101000020E6100000EF02250516B8154066834C3272764A40",0,"2.56499512670102","1.29763537580319","127.361280611401","-28","2013"
"228",2013-05-27 14:14:39,"52.925581","5.4298272","-5","\N",37.5,"\N","45.5","2.4","8.4","10.8","-0.11","-0.15","-0.09","0.62","0101000020E61000009AB91B9F24B8154045662E7079764A40",0,"0.206639783197718","0.1458525121587","-72.2611916583891","-3","2013"
"229",2013-05-27 14:44:29,"52.9256489","5.429576","-6","\N",36.5,"\N","11.7","2.8","20","18.6","-0.06","-2.97","-3","1.56","0101000020E610000003965CC5E2B71540088AC4A97B764A40",0,"4.22190715198712","3.32712481465146","-117.507410440732","-4","2013"
"230",2013-05-27 15:14:19,"52.925596","5.4293353","-2","\N",32.6,"\N","9.9","3.8","39","21.5","1.78","-1.4","-3.3","2.19","0101000020E6100000CA1242ACA3B715407AA702EE79764A40",0,"4.00229933912995","3.64883310765067","-154.651676996829","0","2013"
"231",2013-05-27 15:44:10,"52.9255363","5.429216","-4","\N",32.9,"\N","9.2","2.8","19.5","18.8","-0.52","-0.28","-0.56","0.72","0101000020E610000004AE2B6684B7154063E135F977764A40",0,"0.813879597975032","0.249027013629194","-67.1850154290833","-2","2013"
"232",2013-05-27 16:14:33,"52.9254835","5.4294479","-9","\N",33.8,"\N","40.3","1.7","4.9","8.2","-0.05","0.05","0.03","0.42","0101000020E6100000F157B730C1B715406ABE4A3E76764A40",0,"0.0768114574786861","0.0767439452878944","45.2545016134429","-7","2013"
"233",2013-05-27 16:44:24,"52.925459","5.4295008","-5","\N",34.1,"\N","7.6","1.9","9","10.2","-0.5","-0.04","-1.1","0.49","0101000020E6100000606CC60ECFB71540F964C57075764A40",0,"1.20896650077659","0.263089667540466","178.368622534841","-3","2013"
"234",2013-05-27 17:14:16,"52.925819","5.4293018","-5","\N",26.3,"\N","7.8","3.8","13.5","14.9","-0.68","-1.52","-1.67","0.88","0101000020E6100000AB741CE49AB71540F981AB3C81764A40",0,"2.35832567725495","1.49096468910507","-103.651963981849","-3","2013"
"235",2013-05-27 17:44:35,"52.9259187","5.4293164","-6","\N",27.2,"\N","18.7","1.8","17.7","19.6","0.11","0.64","-2.03","1.37","0101000020E6100000BB8BE6B79EB715409EA0038184764A40",0,"2.13133760817004","1.4969713026456","155.250033838481","-4","2013"
"236",2013-05-27 18:14:52,"52.9262091","5.4293808","-10","\N",30.7,"\N","12.3","2.6","8.8","12","-1.4","-0.32","-0.86","0.68","0101000020E61000000B1FB699AFB71540F9E010058E764A40",0,"1.67391756069407","0.645129292752279","-16.7661523885911","-8","2013"
"237",2013-05-27 18:44:43,"52.9262947","5.4291724","-15","\N",25.7,"\N","11.5","2.3","13.5","13.3","0.09","0.17","-1.2","0.66","0101000020E6100000216239F878B71540A47A21D390764A40",0,"1.21531888819355","0.823563875750633","168.746264828083","-13","2013"
"238",2013-05-27 19:14:36,"52.9262928","5.4288762","-19","\N",24.4,"\N","12.7","2","12.9","22.4","-2.45","-1.21","-0.74","1.5","0101000020E61000008B2194522BB71540984231C390764A40",0,"2.83093624089275","1.86501837537782","-31.4390697884278","-17","2013"
"239",2013-05-27 19:44:38,"52.9262621","5.4288922","-5","\N",20.5,"\N","22.9","1.7","5.4","6.6","-0.25","-0.1","-0.27","0.41","0101000020E6100000B80952842FB715401C83A9C18F764A40",0,"0.381313519298752","0.0874070346943689","-60.2660839145724","-3","2013"
"240",2013-05-27 20:15:09,"52.926267","5.4290599","-4","\N",21.1,"\N","30.1","1.6","10.8","7.2","-0.06","0.02","-0.07","0.46","0101000020E6100000A2197A7A5BB71540992EC4EA8F764A40",0,"0.094339811320566","0.0258898900035173","81.2282893797715","-2","2013"
"241",2013-05-27 20:45:11,"52.9262562","5.4290805","-7","\N",20.3,"\N","8.4","1.9","8","6.4","-0.15","0","-0.21","0.39","0101000020E6100000C367EBE060B71540CE5B2B908F764A40",0,"0.258069758011279","0.0160308188611228","117.71187667896","-5","2013"
"242",2013-05-27 21:15:03,"52.9262327","5.4290567","-6","\N",18.9,"\N","8.6","2.2","9.6","8.4","-0.31","0.1","-0.29","0.47","0101000020E6100000CC84BAA35AB715402E7E09CB8E764A40",0,"0.436119249747131","0.143832396129925","63.6440498647374","-4","2013"
"243",2013-05-27 21:45:10,"52.9262401","5.4290411","-10","\N",17.8,"\N","7.8","2.5","9.6","11.2","-0.73","0.48","-0.28","0.61","0101000020E6100000398FD48C56B7154034DF1C098F764A40",0,"0.917442096265481","0.663013168351345","55.5775364020528","-8","2013"
"244",2013-05-27 22:15:03,"52.9262493","5.4290232","-7","\N",16.7,"\N","9","2.2","9.3","10.2","-0.07","0.03","-0.05","0.59","0101000020E6100000ACE694DB51B71540B1B849568F764A40",0,"0.091104335791443","0.0432354980109864","57.5588913200979","-5","2013"
"245",2013-05-27 22:44:54,"52.9262894","5.4290352","-11","\N",17.3,"\N","8.2","1.9","14.7","16.3","-0.5","-0.03","-0.17","0.95","0101000020E6100000CF54E30055B71540D4D0ABA690764A40",0,"0.528961246217528","0.297434061455929","3.36164657259397","-9","2013"
"246",2013-05-27 23:15:19,"52.92629","5.4290197","-8","\N",18.6,"\N","9.5","2.8","13.9","14","-0.24","0.05","-0.01","0.87","0101000020E6100000E25BB3F050B71540514EB4AB90764A40",0,"0.245356882927706","0.194811045088148","21.8431377381208","-6","2013"
"247",2013-05-27 23:45:39,"52.926265","5.4290044","-2","\N",18.9,"\N","37.6","2","4.7","5.3","-0.08","0","-0.08","0.55","0101000020E6100000445CEFED4CB71540F836FDD98F764A40",0,"0.113137084989848","0.0170833962374377","26.2993319696596","0","2013"
"248",2013-05-28 00:15:33,"52.9262494","5.4289891","-4","\N",20.7,"\N","7.9","2.1","9.5","7.7","-0.66","0.18","-0.34","0.45","0101000020E6100000A55C2BEB48B71540467820578F764A40",0,"0.763937170191371","0.389644985909939","38.326742203429","-2","2013"
"249",2013-05-28 00:45:25,"52.9262703","5.4290047","-3","\N",19.5,"\N","8.1","1.8","10.7","6.7","-0.82","0.39","-0.13","0.61","0101000020E6100000385211024DB71540C8E0720690764A40",0,"0.91727858363749","0.715816681120312","40.5997435888699","-1","2013"
"250",2013-05-28 01:15:32,"52.9262722","5.4290053","-4","\N",19.7,"\N","7.3","1.7","12.8","9.6","-1.17","0.59","-0.13","0.99","0101000020E6100000203E552A4DB71540D418631690764A40",0,"1.3167763667381","1.06656360781245","40.880602569109","-2","2013"
"251",2013-05-28 01:45:26,"52.9262701","5.4290469","-4","\N",19.5,"\N","9.6","1.8","12.7","9.7","-0.88","0.3","-0.14","0.76","0101000020E6100000FDCC0F1258B715409F61C50490764A40",0,"0.940212741883453","0.704436798403772","32.8304365635695","-2","2013"
"252",2013-05-28 02:15:38,"52.9262679","5.4290116","-5","\N",19.1,"\N","29.8","1.9","6.6","7.2","-0.6","0.26","-0.3","0.64","0101000020E6100000256B1ED14EB71540D4EA50F28F764A40",0,"0.719444229944198","0.419320184602735","48.8204103851539","-3","2013"
"253",2013-05-28 02:45:40,"52.926276","5.4290117","-8","\N",18.3,"\N","8","1.9","7.3","13.6","-0.79","0.13","-0.51","0.73","0101000020E6100000CC67D4D74EB71540EC88433690764A40",0,"0.949262871916942","0.371372693320859","33.3495874739068","-6","2013"
"254",2013-05-28 03:15:32,"52.9263191","5.4290237","-7","\N",19,"\N","8.2","3.4","5.6","10.7","-0.41","-0.02","-0.24","0.64","0101000020E6100000EED522FD51B715408014D09F91764A40",0,"0.47549973711875","0.183457512505911","5.90716637850051","-5","2013"
"255",2013-05-28 03:45:41,"52.9262871","5.4288052","-6","\N",24.1,"\N","9.5","2.8","9.8","13","-0.14","-0.16","-0.01","1.65","0101000020E6100000416BD9B518B71540759A609390764A40",0,"0.212837966537928","0.187280699686203","-51.2401172254051","-4","2013"
"256",2013-05-28 04:15:51,"52.9262012","5.4289123","-5","\N",17,"\N","11.7","3.1","27","25.2","-2.42","0.15","0.06","1.85","0101000020E6100000986835C934B715400BC2CBC28D764A40",0,"2.42538656712698","1.98341533153719","10.9950414952711","-3","2013"
"257",2013-05-28 04:46:26,"52.9263355","5.4288095","-10","\N",24.2,"\N","22.9","8.7","33.3","20.2","-3.14","-0.98","0.58","3.73","0101000020E610000040DB6AD619B71540D9CF622992764A40",0,"3.34011975833203","2.99553022730254","-13.0919773576501","-8","2013"
"258",2013-05-28 05:16:34,"52.926142","5.4288829","-7","\N",22,"\N","23.1","5.3","12.4","11.3","-0.58","-0.69","-0.35","0.94","0101000020E61000002A4135142DB71540DCB930D28B764A40",0,"0.966953980290686","0.700378230825306","-64.4771979979882","-5","2013"
"259",2013-05-28 05:46:26,"52.9263005","5.4289708","-6","\N",25.2,"\N","7.3","2.1","8.4","10.8","-0.44","-0.15","-0.53","0.5","0101000020E61000007EC1131F44B715405DE2C80391764A40",0,"0.704982269280583","0.115345644422961","-69.0187993603045","-4","2013"
"260",2013-05-28 06:16:36,"52.9262981","5.4290927","-9","\N",26.2,"\N","9.5","2.1","6.8","15.2","-0.75","0.66","-0.57","0.69","0101000020E610000032CFA51364B7154068ECA6EF90764A40",0,"1.15021737076085","0.755576690292071","74.4724778722438","-7","2013"
"261",2013-05-28 06:46:26,"52.9261499","5.4289245","-13","\N",27.5,"\N","7.7","3.5","20.4","18.3","0.25","0.54","-2.28","1.61","0101000020E610000007D0EFFB37B71540CAD875148C764A40",0,"2.35637433358964","1.69367152246596","162.335759669955","-11","2013"
"262",2013-05-28 07:16:18,"52.9258341","5.4293347","-6","\N",29.5,"\N","7.9","2","8.9","13.3","-0.62","0.06","-1.21","0.67","0101000020E6100000E226FE83A3B71540C48256BB81764A40",0,"1.36091880727691","0.268981903729298","153.886167371251","-4","2013"
"263",2013-05-28 07:46:10,"52.925612","5.4295865","-7","\N",29.8,"\N","8.1","1.7","8.8","6","-1.8","-2.04","0.6","0.55","0101000020E610000061360186E5B7154080643A747A764A40",0,"2.78596482389854","2.69187500134494","-43.7223086772389","-5","2013"
"264",2013-05-28 08:16:32,"52.9254502","5.4296266","-10","\N",34.3,"\N","38.3","4.9","13","20.3","-0.14","-0.04","-0.52","1.1","0101000020E610000079F71109F0B71540D089F32675764A40",0,"0.54","0.20103005916","-172.404087440478","-8","2013"
"265",2013-05-28 08:48:13,"52.9255878","5.42963","-23","\N",33.4,"\N","19.6","7.3","19.8","12.6","-2.89","-2.05","-0.3","1.48","0101000020E61000009D853DEDF0B71540CE4939A979764A40",0,"3.55592463362203","2.87636750082648","-37.9108835878392","-21","2013"
"266",2013-05-28 09:19:26,"52.925536","5.4296541","-12","\N",35.2,"\N","36.8","2.8","13.7","13.4","-0.04","0.01","-2.02","0.75","0101000020E6100000875E903EF7B71540A5A2B1F677764A40",0,"2.02042074826012","1.18682554060567","179.33666254858","-10","2013"
"267",2013-05-28 09:49:23,"52.9255726","5.4295066","-6","\N",37,"\N","10.1","2.3","9.4","16.6","-0.59","-0.14","-0.88","0.65","0101000020E610000024AA0194D0B715406F89B72979764A40",0,"1.06869078783341","0.0980485435953263","-121.561063273504","-4","2013"
"268",2013-05-28 10:19:15,"52.9253609","5.4295745","0","\N",40.4,"\N","10.3","2.2","10.5","18.8","-0.78","-0.15","-0.76","0.75","0101000020E61000003FC8B260E2B71540A23FD93972764A40",0,"1.09931797037982","0.188477965283621","-23.6214701779237","2","2013"
"269",2013-05-28 10:49:15,"52.925278","5.4295894","-9","\N",37.4,"\N","18.6","2.7","38.4","60.2","-1.29","-0.07","-0.51","3.39","0101000020E610000043D59E48E6B71540A9DA6E826F764A40",0,"1.38892044408598","0.724332792949219","4.14671797434627","-7","2013"
"270",2013-05-28 11:19:32,"52.9251441","5.4297526","-14","\N",36.5,"\N","11.7","4.8","20.8","14.4","-2.16","-3.16","-1.58","0.85","0101000020E6100000DF7BC91011B815402ECB321F6B764A40",0,"4.14096607085835","3.10730807266231","-71.1942490138437","-12","2013"
"271",2013-05-28 11:49:26,"52.9253393","5.4298735","15","\N",42.3,"\N","14","4.5","31.2","57.1","-1.98","-1.42","-2","3.38","0101000020E610000011AB3FC230B815400D9AA78471764A40",0,"3.15226902405236","1.31474301727634","-68.8603016425099","17","2013"
"272",2013-05-28 12:20:02,"52.9254737","5.4298139","-5","\N",36.8,"\N","42.1","2.2","9.8","13","-0.08","0","-0.23","0.65","0101000020E610000001778F2221B81540706715EC75764A40",0,"0.243515913237718","0.075495004504844","174.24511122282","-3","2013"
"273",2013-05-28 12:50:25,"52.9253821","5.4297754","-6","\N",38.4,"\N","9.4","2.3","10.6","14.4","-0.05","0.12","-0.91","0.6","0101000020E61000005380DE0A17B81540E3E6AFEB72764A40",0,"0.919238815542512","0.532625229108586","166.51615748267","-4","2013"
"274",2013-05-28 13:20:18,"52.9253024","5.4301154","-6","\N",38.9,"\N","10.6","3.4","23.8","12.9","0.29","1.71","-3.02","1.32","0101000020E61000001A06E22B70B8154085741D4F70764A40",0,"3.48261396080588","2.74917093218418","142.466005737707","-4","2013"
"275",2013-05-28 13:50:31,"52.9252768","5.43051","-13","\N",37.9,"\N","15.8","3","25.5","16.3","-1.32","1.38","-0.71","1.08","0101000020E610000062670A9DD7B81540AFDF5D786F764A40",0,"2.03737576308348","1.58513664905971","70.9947549270134","-11","2013"
"276",2013-05-28 14:20:35,"52.9254307","5.4305889","-12","\N",38.6,"\N","12","3.1","16.6","12.5","-1.49","0.32","-0.89","0.71","0101000020E61000001C15EE4BECB81540719B5F8374764A40",0,"1.76482293729428","0.773977678553406","36.426128736728","-10","2013"
"277",2013-05-28 14:50:38,"52.9252976","5.4308134","-14","\N",33.7,"\N","23.2","1.7","9","8.7","0.17","0.12","-1.65","0.73","0101000020E6100000DAB6DE2527B915409D88D92670764A40",0,"1.66306945134591","1.1434811553382","174.813319495749","-12","2013"
"278",2013-05-28 15:20:50,"52.9256645","5.4299018","-29","\N",37.8,"\N","27.4","7.4","19.1","31.2","-1.76","0.47","-0.66","1.98","0101000020E610000054F76D2D38B81540BB48A12C7C764A40",0,"1.93754999935486","1.1545029837135","33.3348938620143","-27","2013"
"279",2013-05-28 15:50:38,"52.9255044","5.4297209","-15","\N",36,"\N","7.6","4.4","9.9","14","-2.9","-0.45","-1.23","0.69","0101000020E610000079A16FC108B81540ED269DED76764A40",0,"3.1820433686548","1.60526553139565","-6.20723465585495","-13","2013"
"280",2013-05-28 16:21:38,"52.9261444","5.428899","-8","\N",26.6,"\N","27.9","1.8","8.6","7.3","-0.3","-0.13","-0.1","0.41","0101000020E6100000FF25A94C31B71540D0AF52E68B764A40",0,"0.341906419945575","0.213263847757186","-28.2779897676912","-6","2013"
"281",2013-05-28 16:51:26,"52.9252521","5.4299487","-9","\N",31.8,"\N","8.1","2.1","9.8","9.2","-0.23","-0.09","-0.62","0.43","0101000020E6100000B3D4D57844B8154015072BA96E764A40",0,"0.667382948538543","0.196380784641783","-159.793282110001","-7","2013"
"282",2013-05-28 17:21:19,"52.9257611","5.4297469","-4","\N",32.8,"\N","9.3","2","19.4","17.7","-1.48","-0.99","-0.46","1.19","0101000020E6100000C23A44920FB815405A34F8567F764A40",0,"1.83904866711025","1.28900736016349","-40.99102843218","-2","2013"
"283",2013-05-28 17:51:39,"52.9262858","5.4294082","-5","\N",29.5,"\N","37.5","1.8","6.2","8","-0.04","-0.04","-0.02","0.45","0101000020E610000073897EC8B6B71540E6DF788890764A40",0,"0.06","0.042607709366633","-57.7531357500114","-3","2013"
"284",2013-05-28 18:21:34,"52.9262604","5.4291928","-4","\N",28.5,"\N","8.8","2.1","9.7","12.8","-0.18","0.1","-0.59","0.6","0101000020E6100000F5B63E517EB7154039CA66B38F764A40",0,"0.62489999199872","0.249206446696504","152.107528165847","-2","2013"
"285",2013-05-28 18:51:41,"52.9261937","5.4288947","0","\N",23.9,"\N","8","1.8","\N","\N","\N","\N","\N","\N","0101000020E6100000FFB5172C30B7154070A1E1838D764A40",0,"\N","\N","\N","2","2013"
"286",2013-05-28 19:21:54,"52.9262232","5.4289979","-7","\N",24.1,"\N","13.2","1.6","23.3","27","-0.14","-0.21","-0.65","1.38","0101000020E6100000F135BA394BB71540F365587B8E764A40",0,"0.697280431390413","0.329331886645265","-143.517708109116","-5","2013"
"287",2013-05-28 19:51:41,"52.9262088","5.4289887","-2","\N",19.9,"\N","8.4","3.5","27","30.3","-2.8","0.39","-0.79","2.49","0101000020E61000000A6A53D048B715403AA28C028E764A40",0,"2.93533643727597","1.83825422915908","20.8129131902553","0","2013"
"288",2013-05-28 20:22:38,"52.9262534","5.4290154","-7","\N",22.1,"\N","41.6","1.5","6.4","5.2","-0.41","0.12","-0.32","0.35","0101000020E6100000E3EB21D04FB715408767AE788F764A40",0,"0.533760245803301","0.20085436157985","51.9895374160226","-5","2013"
"289",2013-05-28 20:52:44,"52.9262529","5.4290227","-9","\N",20.7,"\N","7.9","2","8","6.7","-0.51","0.04","-0.6","0.41","0101000020E61000006BF706BA51B715409FA97C748F764A40",0,"0.788479549512858","0.0968795777866239","65.3809406354112","-7","2013"
"290",2013-05-28 21:22:37,"52.9262567","5.4290412","-10","\N",20.3,"\N","9.1","2.3","7.3","7","-0.2","-0.01","-0.29","0.46","0101000020E6100000E08B8A9356B71540B7195D948F764A40",0,"0.352420203734122","0.0176594463716199","149.48269442288","-8","2013"
"291",2013-05-28 21:53:00,"52.9262674","5.4290443","-10","\N",20.5,"\N","8.3","2","8.2","9.8","-0.61","0.35","-0.29","0.56","0101000020E61000000F24946357B71540EC2C1FEE8F764A40",0,"0.760723339986358","0.495169436970572","55.1060099810548","-8","2013"
"292",2013-05-28 22:23:09,"52.9262955","5.4290673","-8","\N",20,"\N","9.5","2.1","13.4","15.8","-0.76","0.15","-0.26","0.92","0101000020E6100000D021156B5DB715404B77D7D990764A40",0,"0.817129120763665","0.48855339685998","26.9256150665389","-6","2013"
"293",2013-05-28 22:53:47,"52.9262656","5.4290854","-5","\N",21.3,"\N","7.8","2.8","12.6","12.6","-1.03","-0.16","-0.25","0.74","0101000020E6100000AAC3C02962B7154075B405DF8F764A40",0,"1.07191417566893","0.68228461072812","-5.19940473470832","-3","2013"
"294",2013-05-28 23:25:34,"52.9262611","5.4290295","-5","\N",21,"\N","27","5.6","5.5","7.1","-0.75","-0.73","-0.65","1.65","0101000020E6100000B2135E8253B715404B0746B98F764A40",0,"1.23203084376975","0.705048903007174","-68.4503674437098","-3","2013"
"295",2013-05-28 23:55:23,"52.9262607","5.429031","-4","\N",19.6,"\N","8.2","1.8","5.9","7.3","-0.4","0.03","-0.36","0.46","0101000020E610000076E107E753B71540F808EBB58F764A40",0,"0.538980519128475","0.119465973264211","34.5257539677107","-2","2013"
"296",2013-05-29 00:25:31,"52.9262379","5.4289958","-1","\N",18.8,"\N","8.4","2","11.2","7.5","-0.35","0.1","-0.12","0.52","0101000020E6100000457CCCAC4AB715406968A8F68E764A40",0,"0.383275357934736","0.23842643450423","33.8087007459401","1","2013"
"297",2013-05-29 00:55:23,"52.9262587","5.4290136","-3","\N",18.7,"\N","8.7","1.9","10.2","7.4","-0.59","0.27","-0.07","0.69","0101000020E61000002B2856574FB71540571124A58F764A40",0,"0.652610143960389","0.519850532685294","38.6403488975023","-1","2013"
"298",2013-05-29 01:25:25,"52.9262614","5.4290219","-3","\N",18.3,"\N","18.9","8.3","9.7","7","-0.36","0.17","-0.03","1.54","0101000020E61000003612578451B715400A46CABB8F764A40",0,"0.399249295553543","0.326139273606073","38.5609642317466","-1","2013"
"299",2013-05-29 01:55:41,"52.9262769","5.4289892","-5","\N",19.6,"\N","11.1","1.7","16.2","11.4","-0.83","0.07","-0.13","0.86","0101000020E61000004C59E1F148B715402745D03D90764A40",0,"0.84303024856763","0.594375956538197","14.439681117714","-3","2013"
"300",2013-05-29 02:26:02,"52.9262722","5.4290219","-8","\N",21.3,"\N","40.3","4.5","6.7","9.3","-0.83","0.25","-0.42","0.77","0101000020E61000003612578451B71540D418631690764A40",0,"0.963223753859922","0.507059962661688","40.2179376331734","-6","2013"
"301",2013-05-29 02:56:10,"52.9262667","5.4290072","-8","\N",21.9,"\N","8.6","4","7.2","13.4","-1.12","0.06","-0.67","0.74","0101000020E61000007FFED6A94DB71540DAEF3FE88F764A40",0,"1.30648383074572","0.508892708850699","19.0020714836079","-6","2013"
"302",2013-05-29 03:26:05,"52.9262746","5.4293384","-8","\N",22,"\N","11.8","3","18.6","23.9","-0.79","0.1","-0.34","1.18","0101000020E6100000F9AA4B7CA4B71540C80E852A90764A40",0,"0.865852181379709","0.450086111229116","22.7840190875115","-6","2013"
"303",2013-05-29 03:55:56,"52.926292","5.4294424","-10","\N",24.3,"\N","11","2.8","20.3","25.1","-1.99","-0.29","-0.94","1.26","0101000020E610000021109EBFBFB71540F1457BBC90764A40",0,"2.21986486075166","1.04069576472338","-5.5364538471585","-8","2013"
"304",2013-05-29 04:26:34,"52.9262773","5.4292996","-4","\N",20.5,"\N","12.8","3.3","45.3","22","-2.59","-1.15","1.39","2.62","0101000020E610000058BE78509AB715407B432B4190764A40",0,"3.15637450249491","3.11474799127653","-16.7907861161395","-2","2013"
"305",2013-05-29 04:57:11,"52.9263241","5.4289883","-9","\N",22.3,"\N","22.3","6.3","24","20.2","-2.26","-0.36","-0.1","1.88","0101000020E610000070777BB548B71540927FC1C991764A40",0,"2.29067675589551","1.76788887873737","-4.69036902705413","-7","2013"
"306",2013-05-29 05:27:38,"52.9262832","5.4289076","-5","\N",24.1,"\N","41.6","4.4","7.4","6.3","-0.28","-0.27","-0.13","0.69","0101000020E6100000FD05CC8D33B71540C86AA97290764A40",0,"0.410121933088198","0.292812451572986","-55.841246274146","-3","2013"
"307",2013-05-29 05:57:59,"52.9262463","5.4288495","-6","\N",24.7,"\N","22.8","6.1","32.5","33.3","-1.2","-1.3","-0.78","2.03","0101000020E6100000B29FC55224B7154040451F3D8F764A40",0,"1.93349424617711","1.31587418560982","-63.7958739724178","-4","2013"
"308",2013-05-29 06:28:05,"52.9263244","5.4305028","-3","\N",20,"\N","21","2.9","24.8","24.6","-0.31","-0.36","-0.48","2.06","0101000020E61000008158DBB9D5B8154050BE45CC91764A40",0,"0.675351760196122","0.329432893751184","-92.7758727817971","-1","2013"
"309",2013-05-29 06:58:26,"52.9262703","5.4298061","-5","\N",26.2,"\N","18.4","3.4","45.3","17.3","-1.71","-1.92","1.43","2.94","0101000020E6100000387C1C171FB81540C8E0720690764A40",0,"2.94200611828052","2.94200155803317","-36.4904148728152","-3","2013"
"310",2013-05-29 07:28:38,"52.9263199","5.4304938","-2","\N",22.6,"\N","22.5","1.8","9","8.7","-0.95","0.09","-0.28","0.53","0101000020E6100000E785E05DD3B81540271186A691764A40",0,"0.994484791236146","0.606162218943951","17.2252586115988","0","2013"
"311",2013-05-29 07:58:42,"52.9262821","5.42975","-7","\N",28.5,"\N","18.8","5.8","8.1","13.6","-0.15","-0.19","-0.25","1.09","0101000020E6100000F2D24D6210B81540632F6F6990764A40",0,"0.347994252826106","0.175799463535143","-95.6225464613862","-5","2013"
"312",2013-05-29 08:28:52,"52.9265014","5.4293428","-15","\N",27.1,"\N","20.9","5.4","21.2","12.8","-2.85","-0.19","0.48","1.99","0101000020E61000009F1793A3A5B715405F590E9997764A40",0,"2.8963770472782","2.56867595961405","1.79620826566529","-13","2013"
"313",2013-05-29 08:59:08,"52.9264076","5.4298797","-3","\N",28.3,"\N","29.1","1.5","6.6","6.7","-0.05","0.33","-1.46","0.63","0101000020E61000006FDB526232B815400762348694764A40",0,"1.49766484902331","0.927298516702574","158.93800508979","-1","2013"
"314",2013-05-29 09:29:44,"52.9264891","5.4305924","-2","\N",33.3,"\N","9.5","1.5","9.8","11.7","-0.66","0.52","-0.59","0.59","0101000020E6100000E69FCF36EDB81540DC4CE03197764A40",0,"1.02669372258722","0.594359889268592","77.4365330676939","0","2013"
"315",2013-05-29 10:30:01,"52.9263927","5.4296073","-6","\N",34.4,"\N","10.9","1.9","14.6","11.6","-1.77","-1.9","-0.07","1.1","0101000020E6100000CF7DDEF9EAB7154067E0360994764A40",0,"2.59765278665183","2.28988396534672","-48.8399007305855","-4","2013"
"316",2013-05-29 11:00:26,"52.9264117","5.4291272","-7","\N",30.9,"\N","12.1","2.7","19.3","21","-2.85","0.08","-0.78","1.28","0101000020E6100000D44BE71E6DB71540DE1099A894764A40",0,"2.95589242023454","1.82125961459335","11.0570344814641","-5","2013"
"317",2013-05-29 11:30:32,"52.9257465","5.429144","-15","\N",32.1,"\N","10.3","4.6","23.2","24.5","-1.31","-1.03","-1.49","0.99","0101000020E61000003719558671B7154078F17EDC7E764A40",0,"2.23541942373238","0.927894054641588","-76.2842284658218","-12","2013"
"318",2013-05-29 12:01:08,"52.9253287","5.4295076","-9","\N",33.1,"\N","38.4","5","23.3","37.2","-0.06","-0.22","-0.84","1.2","0101000020E6100000A7881DD7D0B715406D46BC2B71764A40",0,"0.870402205879558","0.490911707462455","-154.242041375174","-7","2013"
"319",2013-05-29 12:31:06,"52.9253102","5.4296637","-1","\N",33.1,"\N","12.8","4.5","24.8","41.2","-1.15","-1.54","-1.94","2.01","0101000020E6100000091DCFC2F9B71540DED38B9070764A40",0,"2.73087897937642","1.4311239230731","-95.6085459798457","1","2013"
"320",2013-05-29 13:00:54,"52.9254354","5.4296877","-5","\N",37.3,"\N","9","3.9","29.6","30","-0.96","-1.16","-0.46","1.56","0101000020E61000004DF96B0D00B81540C4C7CCAA74764A40",0,"1.57442052832145","1.2083295606022","-61.704917577047","-3","2013"
"321",2013-05-29 13:31:32,"52.9254416","5.4295828","-6","\N",41.5,"\N","39.1","1.8","8.2","6.6","-0.14","0","-0.19","0.43","0101000020E61000004AB2B38DE4B71540D02DCFDE74764A40",0,"0.236008474424119","0.0136627102426032","104.167914179556","-4","2013"
"322",2013-05-29 14:01:24,"52.9252591","5.4298313","-24","\N",31.4,"\N","7.4","2.9","9.5","9.3","-1.41","0.75","-0.41","0.57","0101000020E61000004C3041B225B81540C769E3E36E764A40",0,"1.64884808275353","1.20023486526478","47.1585650373621","-22","2013"
"323",2013-05-29 14:31:17,"52.9255403","5.4298938","-7","\N",23.3,"\N","8.6","3.7","11.8","15.3","-0.83","-0.1","-1.47","0.72","0101000020E61000003E038F1436B81540A5D0C31A78764A40",0,"1.69109432025538","0.220400614386615","-174.529825774489","-5","2013"
"324",2013-05-29 15:01:54,"52.9254514","5.4300019","-32","\N",32.9,"\N","21.8","8.7","19.7","34.1","-2.91","0.15","-1.07","1.85","0101000020E610000017DF066B52B81540CA84043175764A40",0,"3.10411017845694","1.70857658728228","14.3928446044226","-30","2013"
"325",2013-05-29 15:32:20,"52.9254966","5.4296665","-8","\N",30.6,"\N","23.9","8.7","25.6","42.3","-3.29","-0.24","-1.2","2.1","0101000020E610000044BFB67EFAB7154094C72EAC76764A40",0,"3.51022791282845","1.90922439940687","2.17291585474272","-6","2013"
"326",2013-05-29 16:02:38,"52.9251701","5.4299247","-3","\N",34.2,"\N","34.3","2.4","7.7","9.2","-0.63","-0.06","-0.32","0.5","0101000020E61000006FF8382E3EB81540585E4DF96B764A40",0,"0.709154426059656","0.312004789508385","-0.0211095693925651","-1","2013"
"327",2013-05-29 16:33:13,"52.9248081","5.4299764","-8","\N",32,"\N","13.5","2.9","19.8","12.9","-2.01","-0.65","0.35","1.19","0101000020E61000000F35C0BB4BB81540B749A01C60764A40",0,"2.14128466113219","1.91193911691504","-13.8252159629522","-6","2013"
"328",2013-05-29 17:03:03,"52.9252029","5.4291765","-13","\N",31.5,"\N","11.6","4.1","25.5","12.8","-3.28","-1.44","0.65","1.45","0101000020E6100000D3D85E0B7AB715400AD5720C6D764A40",0,"3.64067301470484","3.30263035270356","-19.882549349102","-11","2013"
"329",2013-05-29 17:33:22,"52.9258731","5.428897","-11","\N",31,"\N","22.9","8.3","23.8","10.2","-2.35","-0.48","0.38","1.81","0101000020E6100000F96871C630B71540815F7E0283764A40",0,"2.42843571049349","2.1471244499825","-6.83451756188619","-9","2013"
"330",2013-05-29 18:04:02,"52.9255993","5.4290763","-4","\N",28.5,"\N","39.1","1.6","5.4","6.4","-0.06","0.19","-0.62","0.43","0101000020E61000006AF40FC75FB71540AA59B1097A764A40",0,"0.651229606206598","0.392257102053736","150.219705462137","-1","2013"
"331",2013-05-29 18:34:26,"52.9250197","5.4293916","-4","\N",27.8,"\N","7.4","1.9","9.3","14.6","-0.64","0.82","-1.21","0.72","0101000020E61000005DB57C6EB2B71540EFD3A70B67764A40",0,"1.59565033763666","0.921423240597326","107.888650679643","-2","2013"
"332",2013-05-29 19:04:35,"52.9252193","5.4293037","-2","\N",27.7,"\N","8.5","1.7","6.6","9.6","-0.79","-0.41","-0.59","0.59","0101000020E61000000A359E639BB71540639005966D764A40",0,"1.06784830383346","0.45034975416379","-47.7605518704241","0","2013"
"333",2013-05-29 19:35:01,"52.9259199","5.4291527","-5","\N",24.3,"\N","10.9","1.8","12.7","15.2","-1.3","-0.4","-0.99","0.94","0101000020E6100000DDF52DCE73B71540989B148B84764A40",0,"1.68229010577843","0.541143686284658","-30.5682348130952","-3","2013"
"334",2013-05-29 20:05:23,"52.9259458","5.429169","-3","\N",23.4,"\N","41","2","21","5.6","-0.2","-0.03","-0.12","0.65","0101000020E6100000FED30D1478B715402D6F586485764A40",0,"0.235159520326097","0.0894504313492656","-7.02654046184698","-1","2013"
"335",2013-05-29 21:05:07,"52.9259135","5.429172","-4","\N",20.5,"\N","9.5","3","12.5","13.2","-0.23","0.06","-0.55","0.74","0101000020E6100000876F61DD78B7154063B6645584764A40",0,"0.59916608715781","0.173712672416881","152.022721455657","-2","2013"
"336",2013-05-29 21:35:06,"52.9258909","5.4291657","-2","\N",20,"\N","16.8","3.6","24.7","29.8","0.41","-0.02","-1.41","2.05","0101000020E61000008242983677B71540FE94CF9783764A40",0,"1.46853668663742","1.17562536334618","-177.137861590805","0","2013"
"337",2013-05-29 22:05:23,"52.9259103","5.4291882","-2","\N",21.5,"\N","10","2.7","10.4","15.4","-0.46","-0.01","-0.28","0.75","0101000020E610000001518B1C7DB71540C8C38C3A84764A40",0,"0.538609320379809","0.200160098031623","9.65444685576982","0","2013"
"338",2013-05-29 22:35:19,"52.9259316","5.4291917","-5","\N",22.5,"\N","14.2","3.1","33.7","32.4","-1.76","0.43","-0.55","1.55","0101000020E6100000CBDB6C077EB715409E2A3AED84764A40",0,"1.89340962287615","1.19268440287709","29.9030897043547","-3","2013"
"339",2013-05-29 23:05:59,"52.9258744","5.4292271","2","\N",22.9,"\N","14.4","3.8","32.7","32.3","-1.61","-0.92","-0.51","2.21","0101000020E61000004A3A144F87B71540101A660D83764A40",0,"1.92317445906501","1.29082399692213","-36.2645344188876","4","2013"
"340",2013-05-29 23:36:09,"52.9258848","5.4293616","1","\N",23.2,"\N","32.6","1.8","6.6","12.9","0","-0.03","0.06","0.59","0101000020E610000008A23891AAB7154087EEA36483764A40",0,"0.0670820393249937","0.0486748300474592","-37.8480764682567","3","2013"
"341",2013-05-30 00:06:09,"52.925906","5.4291531","-7","\N",23.2,"\N","8.9","3","7.7","10.4","-0.51","-0.02","-1.04","0.61","0101000020E610000077E805E973B71540C8957A1684764A40",0,"1.15849039702537","0.222185195742662","172.671030671452","-5","2013"
"342",2013-05-30 00:36:16,"52.9258989","5.4291686","-5","\N",23.1,"\N","8.1","3.2","12.6","11.3","-0.21","-0.02","-1.06","0.66","0101000020E610000063E135F977B715408173EBDA83764A40",0,"1.08078675047393","0.470710235278879","-179.994997074289","-3","2013"
"343",2013-05-30 01:06:10,"52.925915","5.429157","-2","\N",22.8,"\N","10.3","4","15.4","8.6","0.2","0.14","-1.03","0.92","0101000020E6100000DC65BFEE74B715401CF0F96184764A40",0,"1.05853672586264","0.799481989700118","171.334895309753","0","2013"
"344",2013-05-30 01:36:33,"52.9259238","5.4291543","-3","\N",22.7,"\N","41.5","1.3","3.8","3.9","-0.01","0.02","-0.07","0.38","0101000020E610000048C08D3974B7154045CBCBAB84764A40",0,"0.0734846922834953","0.0414031261691274","149.752226289642","-1","2013"
"345",2013-05-30 02:07:28,"52.9259143","5.4291367","-5","\N",23,"\N","8.8","1.4","6.5","8.3","-0.27","-0.01","-0.38","0.4","0101000020E6100000AF0D709C6FB715400AB31A5C84764A40",0,"0.466261729074991","0.0208688468956392","131.661529749439","-3","2013"
"346",2013-05-30 02:37:19,"52.9259053","5.4291504","-5","\N",21.7,"\N","8","1.9","9.5","12.6","-0.41","-0.12","-0.73","0.58","0101000020E6100000E342D43373B71540B6589B1084764A40",0,"0.84581321815162","0.132701194301286","-142.561889869011","-3","2013"
"347",2013-05-30 03:07:10,"52.9259186","5.4291522","-6","\N",21.3,"\N","7.2","2.3","8.7","12.5","-0.53","-0.11","-0.94","0.58","0101000020E61000009B06A0AC73B715400AE12C8084764A40",0,"1.08471194332873","0.149679458359751","-156.635120533494","-4","2013"
"348",2013-05-30 03:37:05,"52.9259566","5.4290146","-2","\N",22.4,"\N","10.4","2","11.6","12.9","-1.52","0.17","0.08","0.82","0101000020E6100000AE06729A4FB71540F741F1BE85764A40",0,"1.53156782415928","1.28152117500929","14.1392118164508","0","2013"
"349",2013-05-30 04:07:38,"52.9260462","5.4289022","0","\N",25.2,"\N","35.6","4.3","10.7","11.5","-0.34","0.41","-0.4","0.73","0101000020E6100000D4BA682332B71540E4CA8FAE88764A40",0,"0.666108099335236","0.44033315080329","90.2644529463558","2","2013"
"350",2013-05-30 04:37:48,"52.9259484","5.4290111","4","\N",25.7,"\N","21.8","6.5","16.1","21.2","-0.2","0.16","-0.38","1.41","0101000020E6100000E47B90AF4EB715404BE4277A85764A40",0,"0.458257569495584","0.196292885616686","114.789916346564","6","2013"
"351",2013-05-30 05:07:42,"52.9254248","5.4293813","-2","\N",26.9,"\N","8.1","2.8","7.8","6.3","-0.82","0.45","-0.4","0.55","0101000020E61000004D0E44BBAFB715402474E15174764A40",0,"1.01730034896288","0.646329119441571","54.4057638560899","0","2013"
"352",2013-05-30 05:38:00,"52.9250362","5.4294334","-6","\N",26.6,"\N","18.3","6","5.8","14.9","-0.17","0.05","-0.3","1.25","0101000020E6100000873DA363BDB71540DD4E119667764A40",0,"0.348425027803687","0.082453129908611","126.987260868451","-4","2013"
"353",2013-05-30 06:07:57,"52.9250466","5.4293181","-3","\N",28.1,"\N","7.5","4.2","6.6","11.8","-0.92","-0.2","-1.3","0.68","0101000020E6100000CC52FC299FB7154054234FED67764A40",0,"1.60511681817866","0.118287858851232","-108.683448387409","-1","2013"
"354",2013-05-30 06:37:50,"52.9255471","5.4291168","-4","\N",29.8,"\N","8.7","3.7","8.9","13.4","-1.06","-0.35","-0.68","0.67","0101000020E61000001DA8F8646AB715402EB4CE5378764A40",0,"1.30709601789616","0.521261807783149","-28.426754662682","-1","2013"
"355",2013-05-30 07:07:53,"52.9250989","5.4290767","-5","\N",27.2,"\N","19.9","3.3","23.1","10.8","-2.78","-2.67","0.44","1.64","0101000020E610000005E7E7E15FB71540658808A469764A40",0,"3.87954894285405","3.59040035962621","-41.8402257450756","-2","2013"
"356",2013-05-30 07:37:50,"52.9247835","5.4296177","-8","\N",31.4,"\N","9.2","3.2","22","14","-1.18","-0.79","0.55","1.14","0101000020E61000008621CDB3EDB71540B130444E5F764A40",0,"1.52282631970951","1.49000983699173","-26.9288151536878","-6","2013"
"357",2013-05-30 08:08:18,"52.9246395","5.4297978","-3","\N",34.7,"\N","33.9","6.3","11.5","13","-0.21","0.24","-0.13","1.06","0101000020E61000002D921BEA1CB815407E8B4E965A764A40",0,"0.344383507154451","0.268173872279009","74.8019198245169","-1","2013"
"358",2013-05-30 08:38:37,"52.9249544","5.4295381","-3","\N",28.1,"\N","40.5","2.4","4.4","5.8","-0.26","-0.41","-0.38","0.56","0101000020E61000003E8BEFD5D8B715404925E1E764764A40",0,"0.616522505671934","0.383650273252851","-88.7491903559263","-1","2013"
"359",2013-05-30 09:08:28,"52.9253804","5.4292604","-2","\N",37.2,"\N","7.9","2","11","13.6","-1.12","-0.63","-0.85","0.63","0101000020E61000001CDFCD0990B71540012E6DDD72764A40",0,"1.5407141201404","0.672336763498242","-50.8241788011885","0","2013"
"360",2013-05-30 09:38:22,"52.925024","5.4290782","-3","\N",30,"\N","10.1","2.6","11.6","9.6","-0.36","-0.45","-0.56","0.67","0101000020E6100000C9B4914660B71540EF01BA2F67764A40",0,"0.803554602998452","0.414298533262514","-92.4479704194793","0","2013"
"361",2013-05-30 10:08:13,"52.9250796","5.4293219","-3","\N",27.1,"\N","9.3","2.6","17.5","19.3","0.04","-0.16","-1.06","0.94","0101000020E61000008AD3FF28A0B715402F19220269764A40",0,"1.07275346655231","0.678606110012658","-166.095939628998","-1","2013"
"362",2013-05-30 10:38:31,"52.9251243","5.4292993","-5","\N",28.5,"\N","35.4","2.7","5.5","6.5","-0.35","-0.12","-0.22","0.59","0101000020E610000064C8563C9AB71540119E1A796A764A40",0,"0.430464865000618","0.176924794866821","-29.211532719198","-3","2013"
"363",2013-05-30 11:08:31,"52.9248669","5.4292891","-2","\N",30.9,"\N","11.7","3.2","24.3","24.1","-2.21","0.05","-0.34","1.26","0101000020E6100000FA1DD48F97B715409253E00962764A40",0,"2.2365598583539","1.56809807591914","9.50255314817866","0","2013"
"364",2013-05-30 11:38:20,"52.9250448","5.4289113","-11","\N",29.9,"\N","8.9","4.1","16.7","33.6","-0.77","-0.75","-1.06","1.31","0101000020E6100000158A198634B71540DDAA35DE67764A40",0,"1.50963571764847","0.674416670143549","-87.5210861614784","-8","2013"
"365",2013-05-30 12:08:56,"52.9251804","5.4287652","-5","\N",30.7,"\N","37.1","2.8","8","10.5","-0.34","-0.38","-0.77","0.55","0101000020E6100000CFA67E390EB715403A73B44F6C764A40",0,"0.923525852372309","0.383645313629168","-115.549849805305","-2","2013"
"366",2013-05-30 12:39:23,"52.9255056","5.4290248","-3","\N",35.8,"\N","8.4","2.2","10.7","12.1","-1.5","-1.35","-0.92","0.8","0101000020E610000017B1F44652B71540E721AEF776764A40",0,"2.21785932827129","1.41086193764431","-58.427606626859","0","2013"
"367",2013-05-30 13:10:36,"52.925745","5.4287683","-3","\N",18.4,"\N","9.6","2.8","18.5","16.7","0.05","-0.06","-0.83","1.15","0101000020E6100000FE3E88090FB71540BFB7E9CF7E764A40",0,"0.833666600026653","0.539415395539534","-173.136630541131","0","2013"
"368",2013-05-30 13:41:26,"52.9257424","5.4283442","-5","\N",32.4,"\N","35.8","2.4","13.1","13.5","-0.81","0.09","-0.2","0.89","0101000020E6100000A2B9A9DC9FB61540A1421ABA7E764A40",0,"0.83916625289629","0.542113790929532","17.8556644540042","-2","2013"
"369",2013-05-30 14:11:23,"52.9255007","5.4294551","-5","\N",30.6,"\N","9","3.2","28.3","12.5","-0.43","-2.36","0.29","1.55","0101000020E6100000D266E613C3B715406A7693CE76764A40",0,"2.41631951529594","2.41092937869946","-73.2572727071885","-3","2013"
"370",2013-05-30 14:41:48,"52.9253563","5.4298167","-4","\N",29.3,"\N","10.3","3.5","13.8","14.7","-0.99","-0.6","-1.49","0.83","0101000020E61000003C1977DE21B81540E3D2421372764A40",0,"1.88684922556096","0.508015681411898","-97.5361609659112","-2","2013"
"371",2013-05-30 15:12:08,"52.9257222","5.4294363","-14","\N",30.1,"\N","22.5","3.9","10.6","17.3","-1.04","-0.14","-0.55","0.84","0101000020E610000069DC4026BEB715403117A7107E764A40",0,"1.18477846030387","0.506706461245415","-4.63743653968268","-12","2013"
"372",2013-05-30 15:42:04,"52.9259357","5.4291527","-17","\N",25.4,"\N","10.6","3.5","24.4","16.8","-1.78","-0.6","-0.12","1.42","0101000020E6100000DDF52DCE73B7154074D99E0F85764A40",0,"1.88223271674891","1.45157508266988","-17.1856005641177","-15","2013"
"373",2013-05-30 16:12:08,"52.9259307","5.4291797","-14","\N",21.8,"\N","22.8","2.3","8.2","9.3","-0.38","0.07","-0.76","0.51","0101000020E6100000A96D1EE27AB71540636EADE584764A40",0,"0.85258430668175","0.19308440980667","146.830537193001","-12","2013"
"374",2013-05-30 16:42:18,"52.9295211","5.429079","-15","\N",14.7,"\N","9.1","2","13.4","15.5","0.22","-0.02","-0.19","0.97","0101000020E6100000FE99417C60B7154092B8228CFA764A40",0,"0.291376045686669","0.290638388933334","-171.945007426048","-12","2013"
"375",2013-05-30 17:12:26,"52.9264348","5.4294057","-10","\N",23.3,"\N","9.3","1.7","8.4","9.1","-0.13","-0.16","-0.33","0.5","0101000020E61000002CDDB820B6B715402BF05F6A95764A40",0,"0.389101529166874","0.169094139409052","-119.630740997199","-8","2013"
"376",2013-05-30 17:42:38,"52.9263385","5.4300227","-3","\N",24.3,"\N","13.5","2.4","9.3","13.7","-0.31","0.35","-0.54","0.62","0101000020E61000008626E4DE57B815404A438D4292764A40",0,"0.714282857137143","0.392282518226415","105.636438149235","-1","2013"
"377",2013-05-30 18:13:38,"52.9252811","5.4305033","-1","\N",24.8,"\N","33.7","1.8","6.5","7.2","-0.29","-0.3","-0.44","0.49","0101000020E6100000C24769DBD5B81540AF0D709C6F764A40",0,"0.606382717431821","0.271485661522792","-92.5896618842411","1","2013"
"378",2013-05-30 18:43:52,"52.9254235","5.4294814","-7","\N",26.7,"\N","8","2","8.5","16.3","-0.45","0.23","-1.35","0.85","0101000020E610000010F6DCF8C9B7154095B9F94674764A40",0,"1.44149228232412","0.546094060346037","150.181522425399","-5","2013"
"379",2013-05-30 19:14:17,"52.9261682","5.4288758","-5","\N",20.6,"\N","9.3","2.3","9","17.4","0.2","-0.18","-0.98","1.26","0101000020E6100000F02EBC372BB715402FCCF8AD8C764A40",0,"1.016267681273","0.762251315470033","-164.935444428875","-3","2013"
"380",2013-05-30 19:44:34,"52.9262177","5.4289156","0","\N",23.8,"\N","18.4","1.8","8.6","9.3","-0.34","-0.01","-0.45","0.46","0101000020E610000014FAAAA635B71540F93C354D8E764A40",0,"0.564092191046818","0.0222174558464157","91.2094539796006","2","2013"
"381",2013-05-30 20:14:55,"52.9261222","5.4288708","-9","\N",25.3,"\N","15.7","3","31.3","17.4","-0.24","-0.07","-1.15","1.46","0101000020E610000062D630E829B71540BF8C182C8B764A40",0,"1.17686022959398","0.499573632489526","-174.603964272846","-7","2013"
"382",2013-05-30 20:44:56,"52.9262027","5.4288973","-12","\N",22.9,"\N","8.9","4.3","14.8","29","-0.63","-0.15","-0.71","1.04","0101000020E6100000ED5E93DA30B71540C3FB60CF8D764A40",0,"0.96098907381926","0.122702988822306","-46.9885732902705","-10","2013"
"383",2013-05-30 21:14:48,"52.9261768","5.4288788","-12","\N",23.3,"\N","9.2","3.9","16.3","30.9","-0.53","-0.28","-1.03","1.31","0101000020E610000078CA0F012CB715402F281DF68C764A40",0,"1.19172144396247","0.290235010891644","-128.034497104308","-10","2013"
"384",2013-05-30 21:45:15,"52.9262133","5.4289542","0","\N",22.7,"\N","28.4","5.1","15.9","18.7","-0.05","-0.06","-0.18","1.45","0101000020E610000068ED11C53FB71540644F4C288E764A40",0,"0.196214168703486","0.0845900236557946","-139.44344816091","2","2013"
"385",2013-05-30 22:15:38,"52.9261875","5.4289242","-6","\N",21,"\N","27.6","1.6","8.8","9","-0.05","0.17","-0.9","0.59","0101000020E610000013DACDE737B71540643BDF4F8D764A40",0,"0.91727858363749","0.544231857315827","161.357766204899","-4","2013"
"386",2013-05-30 22:45:27,"52.9261991","5.4289275","-6","\N",23.1,"\N","8.9","1.7","10.7","12.8","-0.19","0.27","-1","0.68","0101000020E6100000906B43C538B71540D50A2EB18D764A40",0,"1.05309068935206","0.552550429138453","148.735861251066","-4","2013"
"387",2013-05-30 23:15:37,"52.9262317","5.4288943","-1","\N",22.6,"\N","11.1","1.9","23.8","23","0.3","0.18","-1.26","1.66","0101000020E610000064C33F1130B715405E02A6C28E764A40",0,"1.3076696830622","1.02263484410192","171.519576275495","1","2013"
"388",2013-05-30 23:45:29,"52.9261963","5.4288941","-6","\N",22.6,"\N","11.3","2.3","13.6","18.6","-0.23","-0.01","-1.24","0.95","0101000020E610000017CAD30330B715408E16B1998D764A40",0,"1.26118991432694","0.564209730458381","178.801084591359","-4","2013"
"389",2013-05-31 00:15:38,"52.9262314","5.4288682","-7","\N",23.1,"\N","12.5","3.6","14.7","27.6","-0.67","-0.44","-1.38","1.04","0101000020E6100000742DB53929B715409FC321C08E764A40",0,"1.59590099943574","0.459779885845223","-125.43046247732","-5","2013"
"390",2013-05-31 00:46:03,"52.9262084","5.428906","-2","\N",23.5,"\N","13.7","3.7","27.1","36.6","-0.96","-1.11","-1.41","2.02","0101000020E6100000923B6C2233B71540E7A331FF8D764A40",0,"2.0351412727376","1.01420157955806","-90.2095753217743","0","2013"
"391",2013-05-31 01:16:06,"52.9262213","5.42889","-2","\N",22.5,"\N","24.9","1.7","8.1","10","-0.09","0.08","-0.37","0.75","0101000020E61000006553AEF02EB71540E72D686B8E764A40",0,"0.389101529166874","0.18058507909866","150.779679515554","0","2013"
"392",2013-05-31 01:46:47,"52.9262006","5.42888","-6","\N",22.8,"\N","10.2","1.5","13","16.3","-0.12","0.22","-0.77","0.68","0101000020E610000049A297512CB715408E44C3BD8D764A40",0,"0.809753048774748","0.44907165325088","149.137230620587","-4","2013"
"393",2013-05-31 02:17:07,"52.9261635","5.4288863","-8","\N",21.1,"\N","22.4","2.5","7.7","7.3","-0.09","-0.15","-0.44","0.59","0101000020E61000004ECF60F82DB71540DC9F8B868C764A40",0,"0.473497624070069","0.230463858382779","-142.338525570137","-6","2013"
"394",2013-05-31 02:47:22,"52.9262144","5.4288907","-8","\N",21.1,"\N","13.6","2.5","14.4","20.5","-0.21","-0.09","-0.65","0.84","0101000020E6100000F43BA81F2FB71540C98A86318E764A40",0,"0.688984760353957","0.229123028257561","-162.282371315362","-6","2013"
"395",2013-05-31 03:17:10,"52.9261439","5.4288943","-14","\N",23.3,"\N","9.8","2.3","12.6","20.7","-0.96","-0.09","-0.72","1","0101000020E610000064C33F1130B71540E8F120E28B764A40",0,"1.20337026720789","0.335257285663797","0.210149682943099","-12","2013"
"396",2013-05-31 03:47:07,"52.9258906","5.4290455","10","\N",21.6,"\N","15.1","2.7","13.7","35","-1.16","0.07","-2.33","1.68","0101000020E6100000DFFB1BB457B7154040564B9583764A40",0,"2.60372809640331","0.520466834473247","159.832746987695","12","2013"
"397",2013-05-31 04:17:25,"52.9250885","5.4297912","2","\N",23.5,"\N","9.3","3.9","36.7","15.7","-0.99","-1.67","-0.04","1.79","0101000020E6100000346F302F1BB81540EEB3CA4C69764A40",0,"1.94180328560851","1.80285296420707","-60.4808701133394","4","2013"
"398",2013-05-31 04:47:38,"52.9250796","5.4296466","-4","\N",21.8,"\N","30.5","1.5","5.1","7.2","-0.41","0.02","-0.19","0.48","0101000020E6100000B2593F47F5B715402F19220269764A40",0,"0.452327315115946","0.217663063009379","15.6470017121787","-2","2013"
"399",2013-05-31 05:17:23,"52.9252255","5.4296086","-4","\N",25.9,"\N","7.7","2.8","9.8","17.5","-1.33","-0.11","-0.75","0.76","0101000020E610000046521C51EBB715406FF607CA6D764A40",0,"1.53084943740395","0.612758400067574","1.52821962131725","-2","2013"
"400",2013-05-31 05:47:37,"52.9250715","5.429313","-7","\N",28,"\N","14","4.6","23.5","29.1","-0.92","-1.31","-0.06","1.49","0101000020E610000097FDBAD39DB71540187B2FBE68764A40",0,"1.60190511579182","1.45286972646162","-56.8984503553689","-5","2013"
"401",2013-05-31 06:18:08,"52.9250353","5.4287648","-1","\N",28.8,"\N","37.1","1.5","5.5","7.2","0.05","0.03","0.82","0.78","0101000020E610000034B4A61E0EB71540A192848E67764A40",0,"0.822070556582584","0.45306456304141","3.18027746177519","2","2013"
"402",2013-05-31 06:48:02,"52.9258278","5.4287752","-3","\N",27.2,"\N","7.4","2.9","5.9","8.5","0.19","-0.26","-1.9","0.58","0101000020E6100000EB5795D810B71540235D7D8681764A40",0,"1.9270962612179","1.30636260362215","-167.766677691755","0","2013"
"403",2013-05-31 07:17:55,"52.9256579","5.4286563","0","\N",32.6,"\N","8.6","2","11","10","-0.19","-0.55","-0.91","0.62","0101000020E6100000C0E556ADF1B615405BE443F57B764A40",0,"1.08013887995942","0.638189933627574","-123.923742384658","3","2013"
"404",2013-05-31 07:48:05,"52.9252628","5.428729","-1","\N",34.8,"\N","10.8","1.9","13.1","14.1","-1.06","-0.22","-0.82","0.62","0101000020E61000001B6327BC04B715404A1AED026F764A40",0,"1.3580868897092","0.383056238239829","-18.056374781328","2","2013"
"405",2013-05-31 08:17:54,"52.9252161","5.4293583","-3","\N",29.9,"\N","8","2.7","8.6","9.4","-1.42","-0.39","-0.28","0.63","0101000020E61000008B10C3B3A9B71540C89D2D7B6D764A40",0,"1.49896631049534","1.0205895742304","-14.404743460682","-1","2013"
"406",2013-05-31 08:48:08,"52.9244939","5.4298565","-4","\N",30.7,"\N","30.3","1.4","5.9","7.8","-0.01","0.19","-1.17","0.63","0101000020E610000060E4654D2CB81540FEECECD055764A40",0,"1.18536914081648","0.736703854752945","165.046637212152","-2","2013"
"407",2013-05-31 09:48:50,"52.9240864","5.43003","-2","\N",35.1,"\N","8.7","1.7","11.6","10.5","0.32","0.04","-1.75","0.72","0101000020E61000000E32C9C859B81540D556917648764A40",0,"1.77946621209845","1.31224405528481","179.583506011608","1","2013"
"408",2013-05-31 10:18:44,"52.9240037","5.4298424","-4","\N",39,"\N","10.9","1.6","10.6","12.4","-1.28","0.39","-0.68","0.69","0101000020E610000092BC299B28B815400671D4C045764A40",0,"1.50096635538576","0.769856002259091","41.4255475201659","-1","2013"
"409",2013-05-31 10:48:48,"52.9239884","5.4298653","-3","\N",32,"\N","7.1","2.7","18.7","15.6","-0.24","-0.94","-1.61","0.86","0101000020E6100000ADBDF49B2EB8154012F17B4045764A40",0,"1.87970742404237","1.15604280335503","-127.830842307053","0","2013"
"410",2013-05-31 11:19:01,"52.9238864","5.43016","-9","\N",37.4,"\N","12.4","4.8","20.9","16.9","-1.11","-2.18","-0.54","1.1","0101000020E61000007F30F0DC7BB815400E9CD8E841764A40",0,"2.50521456166932","2.1873046493366","-70.763079871428","-6","2013"
"411",2013-05-31 11:49:38,"52.9241961","5.4299884","-9","\N",36.7,"\N","25.5","3.2","8.4","12.1","-0.42","-0.19","-0.75","0.66","0101000020E610000031A30EE14EB815409E4BCC0E4C764A40",0,"0.88034084308295","0.182162249791186","-124.898713130361","-7","2013"
"412",2013-05-31 12:21:44,"52.9250187","5.4294831","-7","\N",37.2,"\N","7.8","2.5","11.8","20.1","-1.44","-0.74","-1.05","0.84","0101000020E610000021BDF26ACAB715401F58440367764A40",0,"1.9296890941289","0.825563840385909","-46.6598798560157","-5","2013"
"413",2013-05-31 12:51:44,"52.9248748","5.4295414","-9","\N",28.2,"\N","8","2.2","12.2","11.7","-1.45","0.55","-0.99","0.69","0101000020E6100000BA1C65B3D9B715408072254C62764A40",0,"1.83986412541796","0.855785736881269","53.1418272894771","-7","2013"
"414",2013-05-31 13:21:55,"52.9243121","5.4298363","-14","\N",30.5,"\N","11.2","2.6","23.1","15.5","1.73","3.04","-4.52","2.69","0101000020E6100000DA88CC0127B815400766E0DB4F764A40",0,"5.7153215132659","5.18952214195234","146.521637682395","-12","2013"
"415",2013-05-31 13:52:08,"52.9241672","5.4297735","-4","\N",32.9,"\N","32.5","1.4","6.7","5.4","-0.52","-0.51","-0.31","0.45","0101000020E6100000F4BF5C8B16B8154098045E1C4B764A40",0,"0.791580697086532","0.529391625580287","-60.0085866957042","-2","2013"
"416",2013-05-31 14:22:09,"52.9242149","5.4298285","-5","\N",33.7,"\N","9.7","2.6","15.2","12.9","-1.41","-0.1","-0.08","0.89","0101000020E6100000118E59F624B81540EBFC80AC4C764A40",0,"1.41580365870413","1.0797562781701","1.79767742054191","-3","2013"
"417",2013-05-31 14:52:17,"52.9250178","5.4295418","-6","\N",28.7,"\N","9.9","4.4","19.7","33.5","-0.53","-0.5","-0.71","1.2","0101000020E6100000550F3DCED9B71540E39BB7FB66764A40",0,"1.01734949746879","0.448657284294637","-86.0791771980741","-4","2013"
"418",2013-05-31 15:22:07,"52.9250722","5.4292077","-10","\N",28.1,"\N","8.1","4.1","17.9","19.3","-1.23","-2.02","-0.86","0.94","0101000020E6100000F9C32A3982B715402AB80EC468764A40",0,"2.51652538234765","1.99064200987259","-72.1259353501397","-8","2013"
"419",2013-05-31 15:51:58,"52.9256773","5.4289949","-7","\N",32,"\N","7.3","3.2","16.2","13.7","-0.67","-1.23","-0.64","0.62","0101000020E6100000699A66704AB71540251301987C764A40",0,"1.53993506356599","1.18547319617721","-78.3597277345471","-4","2013"
"420",2013-05-31 16:22:38,"52.9252097","5.4294368","-7","\N",25.6,"\N","39.5","4","9.5","13.4","-0.23","-0.28","-0.93","0.75","0101000020E6100000ABCBCE47BEB7154093B87D456D764A40",0,"0.998098191562333","0.43974092871974","-144.239927860308","-5","2013"
"421",2013-05-31 16:52:59,"52.9256896","5.4292974","-6","\N",24.5,"\N","20.7","4","13.2","21.5","-0.06","-0.08","-0.29","1.03","0101000020E61000000508D5BC99B71540A81F2FFF7C764A40",0,"0.306757233003559","0.141927301016663","-148.591219424622","-4","2013"
"422",2013-05-31 17:22:54,"52.9258789","5.4293557","-4","\N",24.4,"\N","8","2.9","9.5","10.2","-0.24","-1.9","-1.32","0.69","0101000020E61000009E674705A9B715403AC7253383764A40",0,"2.3259406699226","1.92495631622518","-103.877600808775","-2","2013"
"423",2013-05-31 17:53:55,"52.9257555","5.4296763","-12","\N",28.6,"\N","13.2","2.8","19.4","29.2","-2.24","-0.67","-0.83","1.63","0101000020E610000013776110FDB71540CB4BFE277F764A40",0,"2.48100785972153","1.40511400989812","-18.8954838289576","-10","2013"
"424",2013-05-31 18:25:08,"52.9259047","5.4291852","-4","\N",26.3,"\N","30.4","2.4","8.9","23.2","-1.1","0.26","-1.43","1.15","0101000020E610000079B537537CB7154039DB920B84764A40",0,"1.82277261335582","0.362998604926107","91.2618626453151","-2","2013"
"425",2013-05-31 18:55:11,"52.9262071","5.4288812","3","\N",22.6,"\N","9.7","2.3","11.2","16.3","-0.73","-0.49","-0.26","0.86","0101000020E6100000197A1FA22CB7154058E949F48D764A40",0,"0.916842407396168","0.622099890455627","-42.3069295468311","5","2013"
"426",2013-05-31 19:25:35,"52.9258809","5.4291925","4","\N",23,"\N","9.8","2.8","12.5","17.3","-0.42","-0.02","-0.27","0.76","0101000020E610000001C11C3D7EB71540DBBEEC4383764A40",0,"0.499699909945959","0.17347420451701","6.56330152869798","6","2013"
"427",2013-05-31 19:55:53,"52.9258953","5.4292161","3","\N",22.2,"\N","34.3","2.2","11.6","9.3","-0.59","-0.07","0.05","0.82","0101000020E6100000AAAAE16C84B715409382B8BC83764A40",0,"0.596238207430554","0.504240787771494","-1.57537042870557","5","2013"
"428",2013-05-31 20:26:05,"52.9259318","5.4291627","-7","\N",20.5,"\N","8.4","3.8","8.5","7.7","-0.94","0.06","-0.38","0.66","0101000020E6100000F9A6446D76B71540C8A9E7EE84764A40",0,"1.01567711404757","0.53411748057245","16.1614574874485","-5","2013"
"429",2013-05-31 20:56:07,"52.9259392","5.4290987","-19","\N",21.5,"\N","18.6","5.4","6.4","9.3","-0.14","-0.04","-0.1","1.06","0101000020E610000043064DA665B71540CE0AFB2C85764A40",0,"0.176635217326557","0.0601253557246526","-26.2307155944786","-17","2013"
"430",2013-05-31 21:26:05,"52.9259674","5.4291281","-18","\N",20.5,"\N","8.8","4.9","12.5","33.4","-0.61","-0.2","-0.52","1.32","0101000020E6100000B02D4D5B6DB71540C1148A1986764A40",0,"0.826135582092915","0.233738967390965","-37.2214299720751","-16","2013"
"431",2013-05-31 21:55:59,"52.9259784","5.4290597","-11","\N",19.8,"\N","11","3.7","15.3","18.8","-0.65","-0.4","-0.25","0.95","0101000020E610000054200E6D5BB71540B566D07586764A40",0,"0.803118920210451","0.519616314501464","-40.3903521858968","-9","2013"
"432",2013-05-31 22:26:08,"52.9259233","5.4291705","-5","\N",19.4,"\N","28.3","1.1","5.3","4.5","-0.19","0.09","-0.22","0.36","0101000020E6100000C2A1B77878B715405D0D9AA784764A40",0,"0.304302481094059","0.108185271185312","83.902063091523","-3","2013"
"433",2013-05-31 22:55:56,"52.9259153","5.4291536","-3","\N",19.6,"\N","8.5","1.3","8.8","7.6","-0.17","0.03","-0.12","0.4","0101000020E6100000B9D7930A74B71540DA2E7E6484764A40",0,"0.210237960416286","0.0759083311989439","37.2529299159211","-1","2013"
"434",2013-05-31 23:25:47,"52.9258976","5.4291501","-1","\N",20.2,"\N","7.7","1.8","5.1","6.4","-0.52","-0.12","-0.91","0.51","0101000020E6100000EF4CB21F73B71540F2B803D083764A40",0,"1.05494075663044","0.144710368063589","-150.952458184907","1","2013"
"435",2013-05-31 23:55:55,"52.9259193","5.4291772","0","\N",20,"\N","7.9","2.1","8.4","8","-0.46","-0.05","-0.45","0.47","0101000020E610000062C1583A7AB715401B1E0C8684764A40",0,"0.645445582524197","0.0980604535513472","-3.65585341203584","2","2013"
"436",2013-06-01 00:25:49,"52.925936","5.4292072","-5","\N",19.6,"\N","10.1","2.3","14.8","9.5","-2.52","1.34","-0.25","1.1","0101000020E6100000B7D49C1782B715403318231285764A40",0,"2.86504799261723","2.35244467240913","41.9452143616722","-3","2013"
"437",2013-06-01 00:55:57,"52.9259172","5.4291807","-1","\N",19.5,"\N","10.4","1.9","11.1","9.2","-1.12","0.47","-0.26","0.81","0101000020E61000002C4C3A257BB71540E6666E7484764A40",0,"1.24213525833542","0.903128797925273","39.4506997001462","1","2013"
