"","date_time","latitude","longitude","altitude","pressure","temperature","satellites_used","gps_fixtime","positiondop","h_accuracy","v_accuracy","x_speed","y_speed","z_speed","speed_accuracy","location","userflag","speed_3d","speed_2d","direction","altitude_agl","year"
"11187",2014-01-01 00:30:38,37.2218106,-7.4182965,4,"\N",33.4,"6",35.7,2.5,"9.4","15.2","-0.32","0.1","-0.56","0.92","0101000020E61000000420EEEA55AC1DC0FC732C4A649C4240",0,"0.652686754883229","0.252874639856217","166.776044354016",-1,"2014"
"11188",2014-01-01 01:00:35,37.2218293,-7.4183507,5,"\N",32.1,"6",9,2.7,"8","13.7","-1.9","0.23","-3.14","1.12","0101000020E6100000EB083B2064AC1DC0B5650AE7649C4240",0,"3.67729520163938","1.34283302794211","-179.264377044394",1,"2014"
"11189",2014-01-01 01:30:44,37.2218806,-7.4209176,5,"\N",26.1,"5",10.2,3.1,"6","9.7","-0.8","0.27","-1.12","0.76","0101000020E6100000453EF90505AF1DC0F54E6095669C4240",0,"1.40260471979813","0.424060400247954","157.187925041961",2,"2014"
"11190",2014-01-01 02:00:34,37.2217975,-7.4182036,0,"\N",31.2,"4",8.4,2.9,"9.7","8.1","-0.84","-0.05","-0.97","0.61","0101000020E6100000224784903DAC1DC0D36A48DC639C4240",0,"1.28413394939936","0.314967274668169","-149.884230807222",-5,"2014"
"11191",2014-01-01 02:30:25,37.2218972,-7.4182909,-4,"\N",29.7,"4",7.6,3.6,"27.3","15.1","-4.36","-0.61","-0.32","1.59","0101000020E61000008DDB1E7354AC1DC07889A020679C4240",0,"4.41407974554153","2.59096020602887","-26.7905260329848",-9,"2014"
"11192",2014-01-01 03:01:06,37.2218283,-7.4182706,9,"\N",29.4,"6",40.7,2.4,"5","9.3","-0.05","0.05","-0.04","0.49","0101000020E61000006083CF204FAC1DC0E4E9A6DE649C4240",0,"0.0812403840463596","0.0431743701725455","87.2851108328542",4,"2014"
"11193",2014-01-01 03:30:59,37.2218063,-7.4182756,6,"\N",28.7,"5",10.1,2.8,"10.6","24","-1.11","-0.42","-0.76","1.12","0101000020E6100000EFDB5A7050AC1DC0FC451A26649C4240",0,"1.40929060168583","0.560490255410703","-87.1537530170545",1,"2014"
"11194",2014-01-01 04:00:50,37.2217655,-7.4183184,6,"\N",29.5,"5",9.3,2.7,"11.6","12.1","-0.99","0.2","-0.67","0.62","0101000020E61000009C429DA85BAC1DC0C7F0D8CF629C4240",0,"1.21202310209006","0.103622573567877","42.8746598276129",1,"2014"
"11195",2014-01-01 04:30:58,37.2217979,-7.4184881,4,"\N",29.6,"4",9.5,3,"13.5","7.7","-1.87","-1.17","-0.13","0.93","0101000020E61000008B0FFD2488AC1DC02669A3DF639C4240",0,"2.20968323521721","1.68035365156439","-56.5265505493399",0,"2014"
"11196",2014-01-01 05:01:04,37.2217765,-7.4185329,4,"\N",29,"4",23.7,3.1,"21.4","11.4","0.32","-0.56","-1.31","1.99","0101000020E61000003D3377E393AC1DC0BB421F2C639C4240",0,"1.46017122283656","1.37826706401352","-158.1036522838",0,"2014"
"11197",2014-01-01 05:31:01,37.2218212,-7.4186054,-2,"\N",27.6,"6",12.9,2.8,"12.4","13.6","-0.76","0.33","-0.5","0.68","0101000020E61000004BB7DBE4A6AC1DC09DC717A3649C4240",0,"0.967729300992793","0.243850746167114","69.9749633230707",-6,"2014"
"11198",2014-01-01 06:00:48,37.2217385,-7.4185617,5,"\N",26,"4",8.1,4.3,"14.2","18.1","-0.4","0.16","-1.7","0.95","0101000020E6100000C26E33709BAC1DC0CEE15AED619C4240",0,"1.75373886311503","1.10646636013187","174.449855847323",1,"2014"
"11199",2014-01-01 06:31:27,37.221824,-7.4185754,6,"\N",26.8,"8",39.2,2.8,"6.7","10.7","-0.14","-0.06","-0.2","0.8","0101000020E6100000F6A397079FAC1DC0E4BB94BA649C4240",0,"0.251396101799531","0.111412445873599","-135.87076970119",2,"2014"
"11200",2014-01-01 07:01:19,37.2217994,-7.4185554,-5,"\N",27.9,"7",7.6,3.4,"12.8","30.8","-1.17","-0.13","-1.84","1.21","0101000020E6100000BD416AC999AC1DC0DFA238EC639C4240",0,"2.1843534512528","0.822643531787237","-160.102416288454",-9,"2014"
"11201",2014-01-01 07:31:17,37.2240938,-7.4256853,8,"\N",25.8,"7",13.8,2.8,"21.2","30.9","-1","-0.49","-0.33","1.33","0101000020E6100000428DE7D8E6B31DC0411E0B1BAF9C4240",0,"1.16146459265877","0.683853494381346","-64.0932761651003",6,"2014"
"11202",2014-01-01 08:01:20,37.2243982,-7.4261175,5,"\N",26.1,"6",9,4,"27.2","20.6","-0.66","-0.8","0.16","1.24","0101000020E61000005C035B2558B41DC001248914B99C4240",0,"1.04938076978759","0.992083737703743","-62.3259396844743",4,"2014"
"11203",2014-01-01 08:31:11,37.224632,-7.4278154,7,"\N",25.9,"5",8.2,4.3,"15.1","9.6","-1.07","-1.17","0.15","0.74","0101000020E610000090E67E3D15B61DC04AD1CABDC09C4240",0,"1.59257652877342","1.46107873485327","-62.7144209447096",7,"2014"
"11204",2014-01-01 09:01:08,37.232771,-7.4295128,6,"\N",29.8,"5",13.4,4.3,"24.6","14.1","-1.17","-0.38","0.35","1.61","0101000020E610000083DA1434D2B71DC0863AAC70CB9D4240",0,"1.27898397175258","1.08770762996321","-29.0462122100503",2,"2014"
"11205",2014-01-01 09:31:39,37.2327545,-7.4290825,8,"\N",28.5,"10",36.5,1.6,"4.5","5.1","-0.04","-0.06","-0.14","0.39","0101000020E6100000C824236761B71DC098BF42E6CA9D4240",0,"0.157480157480236","0.112585926678135","-144.943033839074",3,"2014"
"11206",2014-01-01 10:01:35,37.2327586,-7.4290828,3,"\N",33.5,"8",8.8,2.5,"11.3","12.6","-1.93","1.15","-1.46","0.74","0101000020E6100000BC1A457B61B71DC06E6EA708CB9D4240",0,"2.67936559655453","0.894892529346619","84.5180164505462",-2,"2014"
"11207",2014-01-01 10:31:27,37.2328081,-7.4288191,5,"\N",29.3,"8",9,2.7,"12","11.3","-1.78","0.76","0.04","0.66","0101000020E6100000C299A95A1CB71DC038DFE3A7CC9D4240",0,"1.9358718965882","1.27197190627032","24.3020785376271",0,"2014"
"11208",2014-01-01 11:01:20,37.2248016,-7.4260644,11,"\N",22.9,"6",10.2,4,"18.3","21.9","-2.04","9.64","1.99","0.98","0101000020E61000009EF5DF394AB41DC0530B804CC69C4240",0,"10.0524275675083","9.9545983830856","69.0331542001016",10,"2014"
"11209",2014-01-01 11:31:28,37.2231317,-7.4279818,4,"\N",32.2,"6",10.4,3.3,"22.3","28.4","-2.71","0.84","-0.02","1.47","0101000020E6100000032269DC40B61DC0B7195D948F9C4240",0,"2.83726981445191","1.74346814171545","16.0696655530151",0,"2014"
"11210",2014-01-01 12:01:38,37.2230763,-7.428019,-2,"\N",39.8,"7",28.5,2.5,"9.2","9.3","-0.21","-0.13","-0.08","0.46","0101000020E61000003944DC9C4AB61DC0A081A2C38D9C4240",0,"0.259615099714943","0.164524317979648","-71.539174490935",-6,"2014"
"11211",2014-01-01 12:31:28,37.2239213,-7.4265026,0,"\N",36.1,"6",10.7,3.7,"22.2","28.3","-1.75","-0.69","-1.26","1.12","0101000020E6100000C9A2FA18BDB41DC05C300274A99C4240",0,"2.26411130468447","0.910437905766155","-90.4726676299839",-2,"2014"
"11212",2014-01-01 13:01:39,37.2229684,-7.4279215,13,"\N",35.7,"5",13.9,4.9,"52.4","37","-1.32","-1.17","0.08","3","0101000020E61000006405BF0D31B61DC04E05813A8A9C4240",0,"1.7657009939398","1.53453544632926","-60.1409196400317",9,"2014"
"11213",2014-01-01 13:32:09,37.223015,-7.4282442,0,"\N",32.4,"9",40.2,1.7,"6.2","8.5","-0.14","0.01","-0.04","0.65","0101000020E610000086CEC6A585B61DC03BC269C18B9C4240",0,"0.145945195193264","0.0535376829432991","-8.79267657130654",-4,"2014"
"11214",2014-01-01 14:02:04,37.2229418,-7.4283052,1,"\N",30.6,"7",7.4,3.8,"15.4","34.2","-2.09","0.28","-0.99","1.15","0101000020E6100000B3D36AA395B61DC0A8F45D5B899C4240",0,"2.3295063854817","0.487298018806879","0.875219384708154",-3,"2014"
"11215",2014-01-01 14:32:15,37.2228334,-7.4280623,5,"\N",30,"7",10.6,2.4,"10.1","21.7","-1.28","-0.31","-0.79","0.76","0101000020E6100000279AACF655B61DC06EBA0ACE859C4240",0,"1.53577342078837","0.486539395724909","-76.3905831630126",1,"2014"
"11216",2014-01-01 15:02:05,37.2228359,-7.4280642,4,"\N",29.3,"6",8.8,4.4,"17.9","24.7","-1.64","-0.97","-1.78","0.99","0101000020E6100000865A2E7656B61DC0F76F03E3859C4240",0,"2.60747003817877","1.27968828886187","-113.462914451637",0,"2014"
"11217",2014-01-01 15:31:58,37.2254321,-7.4267876,1,"\N",27.5,"6",10,3.6,"13","23.8","-1.81","-0.09","-1.1","1.02","0101000020E6100000735A01CF07B51DC0FB7B84F5DA9C4240",0,"2.11995282966391","0.381589227008538","-57.8863169565648",-1,"2014"
"11218",2014-01-01 16:02:38,37.2253087,-7.4266484,3,"\N",28.2,"6",42.1,1.9,"10.9","10","-0.17","-0.07","-0.12","0.54","0101000020E61000001B907351E3B41DC08C005DEAD69C4240",0,"0.219544984001002","0.0913914159664387","-89.40201643963",2,"2014"
"11219",2014-01-01 16:32:33,37.2247261,-7.4266793,9,"\N",28.3,"5",13.4,2.2,"14.2","21.1","-0.95","-0.24","-0.58","1.01","0101000020E61000004C851D6BEBB41DC0600729D3C39C4240",0,"1.13863953909918","0.37166188749512","-76.1018089253204",9,"2014"
"11220",2014-01-01 17:02:28,37.224428,-7.4268032,5,"\N",28.5,"4",16.6,2.9,"32.2","37","-1.22","-0.58","-0.07","2.68","0101000020E61000000650E7E50BB51DC04227840EBA9C4240",0,"1.35266403811146","0.966890207355069","-49.2816633686901",5,"2014"
"11221",2014-01-01 17:32:32,37.2245836,-7.4270011,20,"\N",28.1,"4",12.9,3,"31.9","25.2","-2.11","-0.53","0.96","1.5","0101000020E6100000926CBFC63FB51DC0E69BC827BF9C4240",0,"2.37794028520482","2.14293619747709","-21.8714519824859",20,"2014"
"11222",2014-01-01 18:03:08,37.2192708,-7.4222168,1,"\N",26.4,"6",40.9,2.7,"7.6","13.3","-0.29","-0.03","0.02","0.49","0101000020E61000007F49CF9959B01DC0DF7BC910119C4240",0,"0.292232783924049","0.199204896894116","-19.7182827134003",-2,"2014"
"11223",2014-01-01 18:33:04,37.2191815,-7.4223267,-2,"\N",25.9,"6",13.3,2.6,"17.3","16.6","-0.4","-0.06","-0.18","1.2","0101000020E610000011E9126976B01DC0B131AF230E9C4240",0,"0.442718872423573","0.144232049793051","-50.4232861226658",-5,"2014"
"11224",2014-01-01 19:03:08,37.2192957,-7.422232,3,"\N",27.7,"6",25.4,4.2,"13.9","9.2","0.12","0","-0.95","0.79","0101000020E6100000774CDD955DB01DC0A4D3A9E1119C4240",0,"0.957548954362126","0.828630864252254","178.92807437124",0,"2014"
"11225",2014-01-01 19:33:29,37.221894,-7.4190042,1,"\N",28.8,"6",22.5,5.7,"37.3","10.6","0.88","-0.14","-0.8","4.33","0101000020E6100000EC8BDF6F0FAD1DC0DD96C805679C4240",0,"1.19749739039382","1.17610283180888","-178.772324502803",-3,"2014"
"11226",2014-01-01 20:03:25,37.2219181,-7.4181901,4,"\N",27.9,"5",10.9,3.2,"40.4","14.3","0.98","0.35","-3.55","2.64","0101000020E61000003C0B8C063AAC1DC0FBF1F2CF679C4240",0,"3.69937832615157","3.42031664548227","172.040889235976",-1,"2014"
"11227",2014-01-01 20:34:09,37.2220129,-7.4200263,9,"\N",29.2,"7",62.9,1.9,"4.6","5","-0.37","-0.02","-0.16","0.59","0101000020E6100000ECD6D75F1BAE1DC0236530EB6A9C4240",0,"0.403608721412211","0.114958062225093","-36.0274091126057",3,"2014"
"11228",2014-01-01 21:04:30,37.2222308,-7.419394,-7,"\N",30.7,"5",12.3,3.5,"23.7","20.3","-1.8","0.9","-0.03","2.18","0101000020E6100000F38DE89E75AD1DC0FB14110F729C4240",0,"2.01268477412634","1.30530003767929","30.37468983149",-12,"2014"
"11229",2014-01-01 21:34:20,37.2328378,-7.4293505,5,"\N",30.6,"5",10.5,2.6,"10.5","13.6","-1.2","-0.76","-0.94","0.85","0101000020E6100000C21550A8A7B71DC0E42208A1CD9D4240",0,"1.70329093228374","0.913025213784849","-95.5246245793951",1,"2014"
"11230",2014-01-01 22:04:13,37.2328672,-7.429078,3,"\N",30.4,"5",11.7,2.2,"7.4","13.7","-2.62","1.24","-1.36","0.89","0101000020E61000007BBB253960B71DC0D227A897CE9D4240",0,"3.20181198698487","1.06636494983356","56.656215616135",-2,"2014"
"11231",2014-01-01 22:34:03,37.2327556,-7.4292219,6,"\N",29.5,"4",9.9,2.7,"7.9","7.6","-0.73","0.3","-1.09","0.63","0101000020E61000006EE81CF285B71DC0FDFA7CEFCA9D4240",0,"1.3457340004622","0.454310303195808","153.446528205557",2,"2014"
"11232",2014-01-01 23:04:15,37.2327483,-7.4291745,4,"\N",31,"4",14.1,2.6,"20.9","27.3","-1.38","-0.33","-0.24","1.32","0101000020E6100000CE1B278579B71DC08C5940B2CA9D4240",0,"1.43906219462537","0.793155843788256","-39.6082477482763",0,"2014"
"11233",2014-01-01 23:34:32,37.2327733,-7.4291587,7,"\N",30,"8",39.2,2.9,"5.5","6.8","-0.69","0.24","-0.16","0.73","0101000020E6100000EE2CD56075B71DC0E570F783CB9D4240",0,"0.747863623931529","0.33968020863199","25.9741303498267",2,"2014"
"11234",2014-01-02 00:04:24,37.2328329,-7.4285993,8,"\N",29.1,"6",7.5,2.6,"5.4","6.8","-1.28","0.79","-0.61","0.51","0101000020E61000009E5A22BCE2B61DC06777ED77CD9D4240",0,"1.62314509517788","0.707231609206037","60.8863534845405",3,"2014"
"11235",2014-01-02 00:34:42,37.2327068,-7.4286536,0,"\N",30.1,"5",17.7,5.7,"7.9","19.3","-0.38","-0.1","-0.24","1.3","0101000020E61000002B4025F8F0B61DC046C71F56C99D4240",0,"0.460434577328854","0.151116504487227","-78.9037841418508",-5,"2014"
"11236",2014-01-02 01:04:53,37.2327385,-7.4287246,5,"\N",30,"5",9.1,3.7,"19.4","25.5","-2.01","-0.45","-0.71","1.32","0101000020E610000075F6DF9403B71DC093020B60CA9D4240",0,"2.17869226831143","0.930138302528651","-49.3880748993842",0,"2014"
"11237",2014-01-02 01:34:56,37.232847,-7.4288579,-3,"\N",32.7,"5",15.5,4,"21.3","10.8","-2.71","-0.02","0.09","1.3","0101000020E610000063867C8626B71DC061FC34EECD9D4240",0,"2.71156781217066","1.73596647172283","-12.3137862826471",-8,"2014"
"11238",2014-01-02 02:05:48,37.23284,-7.429302,2,"\N",32,"5",43.6,6.9,"4.6","10.2","-0.56","0.1","-0.19","0.91","0101000020E6100000F86D88F19AB71DC0AF997CB3CD9D4240",0,"0.599749947894954","0.194384913625131","7.91006950872405",-2,"2014"
"11239",2014-01-02 02:35:43,37.2320341,-7.4375643,3,"\N",30.9,"5",15.5,4.1,"23.7","34.1","-2.24","-0.29","-0.02","1.7","0101000020E6100000AA9619DB10C01DC045871B4BB39D4240",0,"2.25878285808973","1.42731595083185","-23.8672261684604",-1,"2014"
"11240",2014-01-02 03:05:47,37.2320179,-7.4375348,6,"\N",30.5,"5",11.7,2.6,"16.5","20.1","-1.64","-0.5","-0.64","1.03","0101000020E61000009672631F09C01DC0164B36C3B29D4240",0,"1.83008196537751","0.831133060371801","-58.424351748801",2,"2014"
"11241",2014-01-02 03:36:26,37.2320317,-7.4375613,8,"\N",29.2,"5",42.8,3.2,"8.6","23","-1.08","0.16","-0.72","1.26","0101000020E610000021FBC51110C01DC05191F936B39D4240",0,"1.30782261794175","0.0892374160485565","12.1963426664171",4,"2014"
"11242",2014-01-02 04:06:20,37.2320239,-7.437556,5,"\N",29.8,"6",13.2,2.4,"12.9","30.6","-0.7","0.11","-1.02","1.1","0101000020E61000009FAC18AE0EC01DC0F8318BF5B29D4240",0,"1.24197423483742","0.383977008503248","177.244008010965",1,"2014"
"11243",2014-01-02 04:36:10,37.2320277,-7.4375864,2,"\N",29,"6",11.4,2.4,"9.2","11.9","-1.35","-0.49","-0.72","0.64","0101000020E61000008FB234A616C01DC010A26B15B39D4240",0,"1.60654909666652","0.689750159125561","-73.2917336521567",-2,"2014"
"11244",2014-01-02 05:06:04,37.2320262,-7.4375899,4,"\N",29.6,"4",13.6,3.5,"21.1","27.9","-2.61","-1.04","-0.35","1.51","0101000020E6100000593D169117C01DC05768D608B39D4240",0,"2.83128945888618","1.82436301235188","-48.6299052825624",0,"2014"
"11245",2014-01-02 05:36:18,37.2320734,-7.4375701,-2,"\N",27.1,"4",19.7,7.5,"21.5","27.1","-2.3","-0.63","-0.37","1.5","0101000020E61000006ED4546012C01DC0C1A2C794B49D4240",0,"2.41325506318748","1.38711410971209","-41.6819944662253",-6,"2014"
"11246",2014-01-02 06:06:38,37.2321248,-7.4373938,7,"\N",29.4,"5",31.9,3.8,"14.8","13.1","-0.68","0.42","-0.13","1.02","0101000020E610000085E40929E4BF1DC0974BF443B69D4240",0,"0.809753048774748","0.470836780372392","44.2330126405042",3,"2014"
"11247",2014-01-02 06:36:38,37.232005,-7.4373089,8,"\N",30.1,"5",8.2,4.1,"18.2","12.1","-0.6","-0.04","-1.53","0.78","0101000020E6100000BAFF7EE7CDBF1DC016C1FF56B29D4240",0,"1.64392822227736","0.869288625837526","-172.243089388597",4,"2014"
"11248",2014-01-02 07:06:50,37.2319378,-7.4376709,12,"\N",29.7,"5",12.4,3.1,"25.1","19","-0.35","-0.41","-2.03","1.46","0101000020E6100000BFA4E7CC2CC01DC064DA4823B09D4240",0,"2.10035711249302","1.50770311079009","-162.560478480383",8,"2014"
"11249",2014-01-06 15:53:45,37.2091936,-7.3951041,9,"\N",29.5,"8",53.1,3.9,"3.4","5.7","0.05","0.17","-0.04","0.26","0101000020E6100000E30F502B96941DC029441BDBC69A4240",0,"0.18165902124585","0.181646588610801","105.522025473757",4,"2014"
"11250",2014-01-06 16:23:43,37.2094177,-7.392001,10,"\N",27,"8",11.6,2.9,"12.4","19.9","-1.26","0.86","-0.85","1.05","0101000020E610000047FFCBB568911DC00E5AFE32CE9A4240",0,"1.746339027795","0.70591735559222","78.0992804184611",8,"2014"
"11251",2014-01-06 16:53:31,37.2230693,-7.4283087,19,"\N",29,"8",7.8,2.4,"8.4","17.6","-1.5","0.27","-0.68","0.7","0101000020E61000007D5E4C8E96B61DC0ED1EEA888D9C4240",0,"1.6689218076351","0.386517665662407","11.0082503428141",15,"2014"
"11252",2014-01-06 17:23:40,37.2247197,-7.4257694,10,"\N",25.1,"7",10,2.4,"5.7","12.6","-0.79","-0.63","-0.68","0.62","0101000020E6100000D88CC2E4FCB31DC02B22799DC39C4240",0,"1.21794909581641","0.736145737585412","-99.1311116684644",9,"2014"
"11253",2014-01-06 17:53:33,37.2243714,-7.4254275,4,"\N",26,"6",11.2,3.2,"16.3","21.3","-1.72","0.42","-0.3","0.82","0101000020E6100000B2463D44A3B31DC03194B833B89C4240",0,"1.7957728141388","0.848248795161724","13.2342838672121",3,"2014"
"11254",2014-01-06 18:23:56,37.2207792,-7.4234589,-2,"\N",25.2,"4",42.2,2.7,"14.2","14.3","-0.41","-0.02","-0.22","0.6","0101000020E6100000F0CCBA359FB11DC08BD1297E429C4240",0,"0.465725240887801","0.10042715439226","-46.4649881925356",-5,"2014"
"11255",2014-01-06 18:53:51,37.2207286,-7.4234548,0,"\N",25.4,"4",13.6,3.1,"16.1","31.3","-2.89","-0.64","-3.11","1.56","0101000020E61000003E5695229EB11DC05C25B3D5409C4240",0,"4.29346014305478","1.28260900848456","-128.194143707742",-3,"2014"
"11256",2014-01-06 19:24:08,37.22008,-7.4232971,2,"\N",26.1,"7",22.7,2.3,"9.1","8.8","-0.47","-0.18","-0.44","0.43","0101000020E610000071F783CB74B11DC07940D9942B9C4240",0,"0.668505796534331","0.253053449477504","-109.036080741346",-2,"2014"
"11257",2014-01-06 19:54:07,37.2201428,-7.4233087,1,"\N",25.7,"7",14,2.1,"10.6","15.4","-3.16","0.11","-0.76","1","0101000020E6100000F872FAD577B11DC09539A7A32D9C4240",0,"3.25196863453509","1.33280854956195","-12.972388511108",-3,"2014"
"11258",2014-01-06 20:23:56,37.2200651,-7.422509,5,"\N",26.5,"5",11.2,2.2,"10.5","10.8","-0.88","-0.56","-1.69","0.69","0101000020E61000000A100533A6B01DC0D8BEDB172B9C4240",0,"1.98597583066864","1.09090914147869","-142.17576688613",1,"2014"
"11259",2014-01-06 20:54:32,37.2208874,-7.4234347,3,"\N",23,"5",39.3,2.8,"7.1","13.2","-0.5","0.07","-0.23","0.69","0101000020E61000005EF7B1DD98B11DC09B8CCF09469C4240",0,"0.554797260267208","0.122323963069216","2.25481686159176",0,"2014"
"11260",2014-01-06 21:24:39,37.2206557,-7.4234675,1,"\N",26.9,"4",22.5,5.8,"32.1","14.6","-1.23","0.67","1.01","1.7","0101000020E6100000EFACDD76A1B11DC087962B723E9C4240",0,"1.72681788269638","1.67261556288792","17.5898490271644",-2,"2014"
"11261",2014-01-06 21:54:45,37.2206682,-7.4234902,8,"\N",28.8,"4",20.7,8.8,"51.1","10","-3.59","1.81","3.65","2.89","0101000020E6100000BCB43C6AA7B11DC0332207DB3E9C4240",0,"5.43016574332681","5.36893197721247","14.3536665282473",5,"2014"
"11262",2014-01-06 22:25:26,37.2206026,-7.4235659,9,"\N",27.5,"6",37.9,2.8,"11.5","8.4","-0.35","0.24","0.02","0.69","0101000020E6100000A0CD6042BBB11DC0CF34BCB43C9C4240",0,"0.42485291572496","0.311443969101169","38.2392380541955",6,"2014"
"11263",2014-01-06 22:55:26,37.2205719,-7.4234932,19,"\N",26.8,"5",14.1,4.8,"39.1","55.5","-0.98","0.62","-0.18","3.17","0101000020E610000045509033A8B11DC0537534B33B9C4240",0,"1.17354164817445","0.693766288222425","44.7225023870807",16,"2014"
"11264",2014-01-06 23:25:18,37.2205953,-7.4234531,9,"\N",26.9,"5",14.3,3.6,"28.3","45.3","-1.93","1.03","-0.85","2.22","0101000020E61000002C8F7FB09DB11DC05E937F773C9C4240",0,"2.34697677875176","0.954476715928729","53.9816325955647",6,"2014"
"11265",2014-01-06 23:55:49,37.2205884,-7.4234742,5,"\N",25.7,"5",53.3,5.7,"7.5","18.3","-0.23","-0.11","-0.13","1.18","0101000020E61000008FCC7E38A3B11DC040F09D3D3C9C4240",0,"0.286181760425084","0.14117935619748","-79.45367004784",2,"2014"
"11266",2014-01-07 00:26:33,37.2205184,-7.4235115,4,"\N",28.2,"7",41.7,2.2,"4.2","6.8","-0.34","0.45","-0.39","0.86","0101000020E61000006CEBA7FFACB11DC048156AF2399C4240",0,"0.685711309517351","0.408596157304201","100.071871624726",1,"2014"
"11267",2014-01-07 00:56:24,37.2208351,-7.4234781,8,"\N",25.6,"7",9.1,2.1,"9.5","7.5","-0.63","0.22","-0.23","0.48","0101000020E6100000F349383EA4B11DC08A271653449C4240",0,"0.705832841400852","0.252223107304315","32.8344566364587",5,"2014"
"11268",2014-01-07 01:26:16,37.2209162,-7.4234425,8,"\N",26.2,"6",9.3,2.4,"10.3","7.1","-0.55","-0.14","-0.48","0.45","0101000020E610000028F224E99AB11DC00B1467FB469C4240",0,"0.743303437365925","0.219215926277459","-106.775002922309",5,"2014"
"11269",2014-01-07 01:56:26,37.2209376,-7.4234719,8,"\N",25.7,"5",11.5,3.8,"28.3","11.2","-0.16","-1.08","-2.31","1.2","0101000020E61000009519259EA2B11DC0763AEBAE479C4240",0,"2.55501467706156","2.12905621977665","-149.154496913387",5,"2014"
"11270",2014-01-07 02:27:05,37.2209376,-7.4234689,12,"\N",24.8,"5",58.5,4,"21.8","43.9","1.7","0.38","0.93","2.25","0101000020E61000000C7ED1D4A1B11DC0763AEBAE479C4240",0,"1.9746645284706","0.646511330498261","112.69387502435",9,"2014"
"11271",2014-01-07 02:57:09,37.2209769,-7.4234253,9,"\N",25.1,"5",22.7,2.5,"5.5","11.9","-0.26","0.04","-0.09","0.7","0101000020E61000002A32DF6696B11DC0F25597F8489C4240",0,"0.278028775489157","0.0876224035788778","3.97393768967928",6,"2014"
"11272",2014-01-07 03:27:23,37.2209471,-7.4234094,6,"\N",25.3,"5",13.1,2.6,"16.8","13.7","-1.09","0.64","-1.46","1.02","0101000020E6100000A346D73B92B11DC0B1529CFE479C4240",0,"1.931139559949","0.674042206727812","132.894735257711",3,"2014"
"11273",2014-01-07 03:57:15,37.2209851,-7.4235188,3,"\N",25.6,"5",13.3,2.3,"11.1","12.4","-1.14","-0.56","-0.31","0.7","0101000020E6100000F4F68CE9AEB11DC09FB3603D499C4240",0,"1.30740200397582","0.805126514549712","-60.7685815476832",0,"2014"
"11274",2014-01-07 04:27:06,37.2210158,-7.423453,2,"\N",25.6,"4",12.5,2.7,"14","17.9","-2.51","-0.01","-0.9","1.05","0101000020E61000008692C9A99DB11DC01C73E83E4A9C4240",0,"2.66649582786098","0.856030071316103","-22.980687145372",-1,"2014"
"11275",2014-01-07 04:58:13,37.2211369,-7.4235125,-13,"\N",26,"7",71.4,6.5,"6.1","19.8","0.2","-0.02","0.09","1.42","0101000020E6100000EFC9C342ADB11DC02BB8C4364E9C4240",0,"0.220227155455452","0.0502207154363614","173.128976059492",-16,"2014"
"11276",2014-01-07 05:28:16,37.2210182,-7.4234698,13,"\N",26.6,"6",18.9,5.6,"4.2","11.9","-0.03","-0.09","-0.04","0.82","0101000020E6100000E95F3711A2B11DC010690A534A9C4240",0,"0.10295630140987","0.0954363903084667","-102.644699237719",10,"2014"
"11277",2014-01-07 05:58:23,37.2210169,-7.4234799,7,"\N",28.1,"6",18.1,8.2,"7.6","13","-0.1","-0.08","-0.1","1.46","0101000020E6100000AC0D04B7A4B11DC081AE22484A9C4240",0,"0.162480768092719","0.0958167967707968","-105.68314838892",4,"2014"
"11278",2014-01-07 06:28:25,37.2209989,-7.4235334,7,"\N",27.3,"6",12.3,4.4,"14.3","32.3","-1.38","-0.55","-1.08","1.62","0101000020E6100000040E57BDB2B11DC0DAF923B1499C4240",0,"1.83665456741326","0.727591207882542","-95.9359153964881",4,"2014"
"11279",2014-01-07 06:58:41,37.2209873,-7.4235651,7,"\N",29.1,"5",20.5,5.1,"13.2","20.1","-0.56","-0.27","-0.09","2.03","0101000020E61000006BE8B00CBBB11DC0692AD54F499C4240",0,"0.628171950981576","0.418059914701383","-54.4390972071396",4,"2014"
"11280",2014-01-07 07:28:49,37.2240715,-7.4257794,2,"\N",29.3,"5",20.7,7.9,"27.8","9.7","-0.12","-0.21","-0.07","1.84","0101000020E6100000F43DD983FFB31DC09B3BFA5FAE9C4240",0,"0.251793566240283","0.223747834173586","-90.0446727685526",0,"2014"
"11281",2014-01-07 07:59:06,37.2243052,-7.4257176,5,"\N",27.2,"10",29.9,1.5,"6.7","8.6","-0.09","0.03","-0.31","0.53","0101000020E610000091538550EFB31DC050296508B69C4240",0,"0.324191301548947","0.191371024630333","174.567781823752",4,"2014"
"11282",2014-01-07 08:29:11,37.2041832,-7.3918505,2,"\N",25.5,"9",11.1,1.6,"11.6","10.8","-0.23","0.06","-1.57","0.7","0101000020E61000005CAFE94141911DC04232D3AC229A4240",0,"1.58789168396336","1.10830342287563","178.453517335731",-1,"2014"
"11283",2014-01-07 08:58:59,37.2040764,-7.3919463,1,"\N",29.5,"8",7.3,2,"9.4","8.9","-0.71","-0.31","-0.82","0.42","0101000020E61000001F27F15E5A911DC055F1EB2C1F9A4240",0,"1.12809574061779","0.471453111059117","-122.238938673813",0,"2014"
"11284",2014-01-07 09:28:51,37.1800099,-7.3789114,5,"\N",23.3,"6",7.5,2.1,"10.2","11.4","-0.76","-0.09","-1.27","0.51","0101000020E610000088539C5901841DC066BA7C900A974240",0,"1.48276768241016","0.593547012945273","-161.649905718655",1,"2014"
"11285",2014-01-07 09:59:01,37.2028153,-7.3868422,-8,"\N",33.7,"6",9.7,1.8,"16","17.5","-2.04","-1.45","-1.04","0.98","0101000020E6100000CCD9965C208C1DC070500CDAF5994240",0,"2.71029518687541","1.7234957942799","-80.577940348813",-11,"2014"
"11286",2014-01-07 10:29:08,37.2028078,-7.3872969,1,"\N",30.5,"5",24.8,2.9,"11.7","13","-0.94","1.05","-1.43","0.77","0101000020E6100000655EFD8E978C1DC0D62F229BF5994240",0,"2.00773504228023","1.04448218034153","118.209547420639",-2,"2014"
"11287",2014-01-07 11:29:23,37.2078851,-7.3997309,-7,"\N",31,"5",8.4,4.3,"18","32.4","-1.31","0.49","-0.61","1.32","0101000020E610000076CD9A0E53991DC0B0E99CFA9B9A4240",0,"1.52587679712354","0.463459125233932","43.1904075041273",-13,"2014"
"11288",2014-01-07 11:59:38,37.2078792,-7.3995095,-7,"\N",31.3,"8",31.5,2.2,"10","13.4","-0.73","0.14","-0.62","0.55","0101000020E6100000E7C3B30419991DC063C21EC99B9A4240",0,"0.967935948294101","0.0636063173486109","135.199566110402",-13,"2014"
"11289",2014-01-07 12:29:38,37.2078828,-7.3991967,-7,"\N",34.9,"8",7.8,2,"10.6","13.4","-0.8","-0.18","-1.24","0.53","0101000020E61000003BAF0C05C7981DC051B351E79B9A4240",0,"1.48660687473185","0.592965843553233","-151.65517458621",-13,"2014"
"11290",2014-01-07 12:59:36,37.2079529,-7.4000555,-12,"\N",32.9,"5",14,2.5,"12.3","22.4","-1.59","0.66","-1.35","0.8","0101000020E6100000F7562426A8991DC0DF4D5C339E9A4240",0,"2.18773855842054","0.455180669685444","98.88687034099",-17,"2014"
"11291",2014-01-07 13:29:38,37.2101907,-7.3893472,-8,"\N",25.9,"5",8.2,3.9,"16.7","22.6","-2.49","1.57","-1","0.81","0101000020E61000001C284B08B18E1DC030366387E79A4240",0,"3.10885831134196","1.48331123833138","56.4865061788571",-8,"2014"
"11292",2014-01-07 13:59:41,37.2121484,-7.386198,-9,"\N",32.8,"4",19.3,7.7,"24.5","17.3","-0.85","-0.12","-0.56","0.95","0101000020E6100000581F0F7D778B1DC009F3C3AD279B4240",0,"1.02493902257647","0.234686751041825","-76.5787905857237",-9,"2014"
"11293",2014-01-07 14:30:08,37.2122976,-7.3862562,0,"\N",31.1,"5",38.3,4.3,"25.4","28.2","-1.36","0.89","0.22","1.06","0101000020E61000004A82CBBE868B1DC0788258912C9B4240",0,"1.6401524319404","1.27463213854143","33.7299257696375",0,"2014"
"11294",2014-01-07 15:00:35,37.2124083,-7.3859057,1,"\N",30.1,"8",24.7,1.9,"9.4","15.5","-0.05","0.05","0.02","0.28","0101000020E6100000265C23DD2A8B1DC011F3F631309B4240",0,"0.0734846922834954","0.0659006984297472","40.9111369928079",1,"2014"
"11295",2014-01-07 15:30:24,37.212367,-7.3859873,-7,"\N",31.1,"8",7,2.1,"11.6","20.2","-2.51","0.43","-1.59","0.89","0101000020E610000074AF3841408B1DC0F4DF83D72E9B4240",0,"3.00218253942028","0.291620526348993","20.8436099656933",-7,"2014"
"11296",2014-01-07 16:00:18,37.2117109,-7.3848925,-14,"\N",30.2,"7",9.2,3.9,"12.6","35.8","-0.74","0.38","-0.65","1.01","0101000020E610000019E76F42218A1DC076DABF57199B4240",0,"1.05569882068704","0.285196509026708","98.9388911910992",-16,"2014"
"11297",2014-01-07 16:30:25,37.2117516,-7.3850549,-14,"\N",29.6,"7",8.4,2.8,"14.1","21.1","-1.31","-0.2","-0.37","0.6","0101000020E610000080A8EAD44B8A1DC016702AAD1A9B4240",0,"1.37586336530922","0.600449319388627","-37.6437396992924",-13,"2014"
"11298",2014-01-07 17:00:19,37.2120724,-7.3850284,-10,"\N",30,"7",10.6,2.5,"15.3","17.4","-1","-0.06","-0.68","0.63","0101000020E6100000F51F88E2448A1DC02E313B30259B4240",0,"1.21078486941323","0.195510353495816","-74.1089542590474",-9,"2014"
"11299",2014-01-07 17:30:18,37.2242451,-7.4257966,-24,"\N",29.3,"6",17.8,2.5,"15.9","19.9","-0.11","-0.1","-0.03","1.18","0101000020E6100000F2FD1E0604B41DC0E5643D10B49C4240",0,"0.151657508881031","0.118446447302476","-73.1779918401674",-25,"2014"
"11300",2014-01-07 18:00:38,37.224202,-7.4256466,-1,"\N",26.7,"8",29.9,1.9,"9.4","10.9","-0.47","0.32","-0.41","0.45","0101000020E6100000489DCAB3DCB31DC051D9B0A6B29C4240",0,"0.700999286732875","0.257315144149781","94.3504778890556",-2,"2014"
"11301",2014-01-07 18:30:41,37.2202077,-7.4233108,-3,"\N",28.9,"7",9.2,2.3,"19","18.1","0.1","0.09","-1.95","1","0101000020E6100000A52CE86278B11DC0E8E912C42F9C4240",0,"1.95463551589548","1.6090117923191","176.359506216687",-7,"2014"
"11302",2014-01-07 19:00:35,37.2202018,-7.4232966,0,"\N",28.7,"7",11.4,2,"14.3","19.3","-2.14","-0.37","-1.08","1.26","0101000020E61000002F08F6A974B11DC09AC294922F9C4240",0,"2.42546902680698","0.754782871734351","-58.4747541062365",-4,"2014"
"11303",2014-01-07 19:30:31,37.2202293,-7.4233484,1,"\N",29.5,"6",15.6,1.7,"14.8","33.3","-1.63","0.45","-0.61","1.66","0101000020E61000007641333E82B11DC07C8F4479309C4240",0,"1.79763733828601","0.577376339057823","24.0861415905121",-2,"2014"
"11304",2014-01-07 20:01:09,37.220242,-7.4233254,1,"\N",29.1,"7",29.8,2,"5.3","8.5","-0.16","0.02","-0.08","0.59","0101000020E6100000B543B2367CB11DC0529ACDE3309C4240",0,"0.18","0.0338378394296713","-1.42165128247912",-3,"2014"
"11305",2014-01-07 20:30:57,37.2208992,-7.4233067,5,"\N",24.8,"7",10,1.7,"13.1","12.9","-1.1","0.25","-0.69","0.65","0101000020E6100000F3B5C24F77B11DC035DBCB6C469C4240",0,"1.32234639939768","0.167514338067478","39.1610944346141",1,"2014"
"11306",2014-01-07 21:00:50,37.2208685,-7.4232732,6,"\N",26.4,"5",11.2,3.3,"9.6","17.8","-1.3","0.42","-0.6","0.7","0101000020E6100000D3179D876EB11DC0B91B446B459C4240",0,"1.49211259628756","0.416960543607339","36.5862597694446",2,"2014"
"11307",2014-01-07 21:30:59,37.2209386,-7.4232576,5,"\N",27.6,"5",12.4,2.9,"14.9","19.9","-1.21","0.86","-0.97","1.11","0101000020E61000004122B7706AB11DC046B64EB7479C4240",0,"1.7733020047358","0.69676621473592","88.3080414485581",1,"2014"
"11308",2014-01-07 22:00:51,37.2217619,-7.4230306,1,"\N",27.4,"4",12.6,4.6,"13","14.1","-0.6","0.46","-0.26","0.91","0101000020E61000003BD400EF2EB11DC0D9FFA5B1629C4240",0,"0.799499843652267","0.423094192244151","63.496004297324",-3,"2014"
"11309",2014-01-07 22:30:54,37.2218366,-7.4230263,-11,"\N",28,"4",23.8,5.5,"19.8","27.3","-2.02","0.87","-0.13","1.87","0101000020E61000003C646FCE2DB11DC026074724659C4240",0,"2.20322490908214","1.32112800607288","27.0953010511183",-15,"2014"
"11310",2014-01-07 23:01:09,37.2210112,-7.4229456,-4,"\N",25.7,"7",31,3.3,"11.8","20.2","-0.93","0.35","-0.15","1.37","0101000020E6100000CAF2BFA618B11DC05D0652184A9C4240",0,"1.00493780902104","0.51807830073699","25.9762559255994",-8,"2014"
"11311",2014-01-07 23:31:31,37.2208492,-7.4230337,15,"\N",26.5,"6",13.3,4.6,"15.4","14.6","-1.2","0.5","-0.77","0.98","0101000020E61000006B6C0ABF2FB11DC084AC5DC9449C4240",0,"1.51092686785297","0.370616831944654","66.8508816552239",11,"2014"
"11312",2014-01-08 00:01:48,37.2210012,-7.423008,6,"\N",26.8,"5",38.3,7,"8.3","28.5","-0.24","0.05","-0.09","1.3","0101000020E610000015C9570229B11DC03A306FC4499C4240",0,"0.261151297144012","0.0784281362242186","13.6997594340685",2,"2014"
"11313",2014-01-08 00:32:02,37.2211389,-7.4230318,8,"\N",26.2,"5",12.7,4,"19.9","35.6","-1.61","-0.86","-0.85","1.86","0101000020E61000000CAC883F2FB11DC0CCAF8B474E9C4240",0,"2.01350440774288","1.083703909483","-78.1981598519219",4,"2014"
"11314",2014-01-08 01:02:13,37.2216952,-7.4229588,8,"\N",25,"5",15.9,3.7,"19.1","16","-0.8","0.52","-0.75","0.97","0101000020E6100000BC38961C1CB11DC010D72082609C4240",0,"1.21363091588835","0.41936577417592","100.541672647361",4,"2014"
"11315",2014-01-08 01:32:39,37.220947,-7.4230352,4,"\N",26.3,"6",34,2.4,"5.9","5.8","-0.09","0.05","0.04","0.42","0101000020E61000002F3AB42330B11DC01D93C5FD479C4240",0,"0.110453610171873","0.0974391574604422","22.923984142594",0,"2014"
"11316",2014-01-08 02:02:38,37.2209386,-7.4230498,2,"\N",27,"6",9.3,2,"7.8","14.1","-0.68","-0.05","-0.16","0.75","0101000020E61000003F517EF733B11DC046B64EB7479C4240",0,"0.700357051795725","0.308826850081882","-26.4244359028065",-2,"2014"
"11317",2014-01-08 02:32:50,37.2209407,-7.4230221,10,"\N",26.9,"5",13.5,2.6,"22.1","19.3","-1.14","-0.59","0.48","0.96","0101000020E6100000E3F093B42CB11DC07C6DECC8479C4240",0,"1.37043788622469","1.25560610363083","-35.6797016256533",6,"2014"
"11318",2014-01-08 03:03:08,37.2209346,-7.4230303,6,"\N",26.9,"6",39.6,2.5,"12.8","9.8","-0.39","0.04","-0.3","0.56","0101000020E610000047DEDEDA2EB11DC005C7C095479C4240",0,"0.493659801887899","0.0108771515649607","-99.7213385988327",2,"2014"
"11319",2014-01-08 03:33:00,37.2208441,-7.4230292,3,"\N",24.5,"6",7.9,2.4,"10.2","14.1","-0.91","-0.04","-0.86","0.6","0101000020E61000001E030D912EB11DC0DD81959E449C4240",0,"1.2527170470621","0.211940797296174","-132.109467261424",-1,"2014"
"11320",2014-01-08 04:03:12,37.2203248,-7.4230901,3,"\N",27.1,"6",12.1,2.2,"7.9","15.7","-1.32","0.21","-0.91","0.99","0101000020E6100000A40BFB873EB11DC0B63F619A339C4240",0,"1.61697247966686","0.0916319627973854","24.2961979400894",-1,"2014"
"11321",2014-01-08 04:33:33,37.2209043,-7.4234066,0,"\N",24.2,"6",41.2,4,"5.1","17.1","-0.26","0.07","-0.13","1.11","0101000020E610000068A4EF7F91B11DC0DC059497469C4240",0,"0.298998327754521","0.0680880132236149","31.7423294813598",-3,"2014"
"11322",2014-01-08 05:03:24,37.2209055,-7.4234365,2,"\N",25.5,"8",8.6,3.3,"6.7","20.4","-1.24","-0.05","-0.43","0.91","0101000020E610000017BB7D5699B11DC0D600A5A1469C4240",0,"1.31339255365637","0.449425425868375","-27.8265823299858",-1,"2014"
"11323",2014-01-08 05:33:16,37.2209867,-7.4235059,1,"\N",24.3,"7",8.8,3.8,"7.1","10.3","-1.13","-0.38","-1.4","0.69","0101000020E6100000F6A6D887ABB11DC0ECACCC4A499C4240",0,"1.83883115048663","0.700837655918656","-131.756314088283",-2,"2014"
"11324",2014-01-08 06:03:34,37.2209774,-7.4234306,0,"\N",25.9,"7",18.9,5.1,"6.4","6.9","-0.07","-0.12","-0.21","1.16","0101000020E6100000AC808CCA97B11DC0DB13C9FC489C4240",0,"0.251793566240283","0.185782597801229","-136.434495167489",-3,"2014"
"11325",2014-01-08 06:33:33,37.2209337,-7.4234289,1,"\N",25.4,"9",10.2,2,"8.4","13.8","-1.1","0.75","-1.17","0.8","0101000020E61000009BB9765897B11DC0CA0A348E479C4240",0,"1.77239950349801","0.638275502004046","109.519449946644",-2,"2014"
"11326",2014-01-08 07:03:23,37.2211992,-7.4235682,2,"\N",24.4,"8",8.4,2.2,"8.2","9.5","-0.82","-0.21","-0.67","0.55","0101000020E61000009A80BADCBBB11DC060F36041509C4240",0,"1.07953693776545","0.319510257934003","-100.473749603882",-1,"2014"
"11327",2014-01-08 07:33:34,37.2242752,-7.4256548,4,"\N",24.6,"8",11.6,1.7,"11.4","19.3","-1.36","0.29","-0.48","0.93","0101000020E6100000AC8A15DADEB31DC0E5A6BC0CB59C4240",0,"1.47108803271592","0.469773133133604","13.7680267008676",3,"2014"
"11328",2014-01-08 08:03:38,37.2245174,-7.4253701,0,"\N",25.3,"11",23.7,1.5,"5","8.5","-0.54","0.06","-0.18","0.43","0101000020E6100000F6C8303894B31DC0053175FCBC9C4240",0,"0.572363520850167","0.185575573321371","-3.17859588134388",-1,"2014"
"11329",2014-01-08 08:33:30,37.2252693,-7.4255499,0,"\N",26,"10",8,1.8,"9.4","12.4","-1.22","0.21","-0.04","0.57","0101000020E6100000A8435D5AC3B31DC07B25DA9FD59C4240",0,"1.23858790564094","0.718200238653529","4.0375580298342",-2,"2014"
"11330",2014-01-08 09:03:39,37.2492808,-7.4158751,3,"\N",18.9,"9",9.2,2.2,"15.3","19.4","-1.22","0.25","0.38","0.97","0101000020E610000007E28629DBA91DC0A7C2E96EE89F4240",0,"1.30203686583752","1.05815666728077","4.90318126502523",-3,"2014"
"11331",2014-01-08 09:33:34,37.2109977,-7.3862804,8,"\N",25.9,"9",12.4,2.2,"15.5","23","-1.32","0.28","-0.46","0.98","0101000020E6100000DC57D4168D8B1DC0FF83FEF8019B4240",0,"1.42562267097574","0.459922317198058","13.5785591401379",9,"2014"
"11332",2014-01-08 10:33:15,37.212023,-7.3849704,38,"\N",32,"5",9.8,4.6,"36.2","42.8","-3.76","0.05","-0.96","1.81","0101000020E610000050B637AE358A1DC0FA7FD591239B4240",0,"3.88094060763625","1.55606220274118","-16.1839183396426",36,"2014"
"11333",2014-01-08 11:03:38,37.2120443,-7.3850403,9,"\N",29.2,"7",24.9,3.1,"11.6","15.2","-1.46","-0.55","-0.49","0.48","0101000020E610000070912001488A1DC0D0E68244249B4240",0,"1.63529813795528","0.856370499863812","-58.8766002268795",10,"2014"
"11334",2014-01-08 11:33:33,37.2117508,-7.3850224,0,"\N",32.1,"6",12.1,3.4,"18.8","27.3","-1.72","-0.91","-1.12","1.57","0101000020E6100000E4E8E04F438A1DC06F7374A61A9B4240",0,"2.24519486904812","1.1256415075775","-86.4932917736308",1,"2014"
"11335",2014-01-08 12:03:25,37.2114812,-7.3848079,-5,"\N",32.5,"6",12.3,3.7,"37.9","30.3","-1.33","-1.34","0.18","2.61","0101000020E610000042F806150B8A1DC003DCE2D0119B4240",0,"1.8965494984313","1.7175040924627","-60.8401132946964",-8,"2014"
"11336",2014-01-08 12:33:30,37.214572,-7.385693,2,"\N",33.1,"6",9.5,4.4,"31.5","34.7","-2.34","-1.11","-0.37","1.12","0101000020E61000003C2F151BF38A1DC093516518779B4240",0,"2.61621864529706","1.73494792507115","-53.8872520748924",0,"2014"
"11337",2014-01-08 13:03:35,37.2142008,-7.3853974,1,"\N",31,"8",22.7,1.7,"10.5","11.8","0.17","0.01","-0.05","0.75","0101000020E61000008DDAB39DA58A1DC076638BEE6A9B4240",0,"0.177482393492988","0.144538663867639","167.302825021666",-1,"2014"
"11338",2014-01-08 13:33:40,37.214452,-7.3856688,6,"\N",33,"7",8.2,2.6,"13","18.9","-1.37","0.04","-0.47","0.62","0101000020E6100000AB590CC3EC8A1DC0E947C329739B4240",0,"1.44893064016191","0.470722139343349","-16.8493824743645",4,"2014"
"11339",2014-01-08 14:03:55,37.2140013,-7.38554,2,"\N",34.1,"5",11.2,2.9,"12.1","21.7","-1.54","0.24","-0.49","0.61","0101000020E610000009336DFFCA8A1DC097660465649B4240",0,"1.6337992532744","0.553537142793734","4.14904397197853",0,"2014"
"11340",2014-01-08 14:33:49,37.2139784,-7.3854374,18,"\N",36.8,"5",13.4,2.6,"18","26.7","-1.34","0.01","-0.68","1.19","0101000020E6100000FF9E0E1AB08A1DC07406EBA4639B4240",0,"1.50269757436418","0.309010403622457","-31.6902161964513",16,"2014"
"11341",2014-01-08 15:04:08,37.2140228,-7.3855724,0,"\N",34.7,"8",40.5,2.6,"7.8","14.2","-0.26","-0.04","-0.17","0.57","0101000020E6100000FFF5C07DD38A1DC0974C5F19659B4240",0,"0.313209195267317","0.0751436152237869","-76.5742794973592",-2,"2014"
"11342",2014-01-08 15:34:15,37.2139943,-7.3856989,-4,"\N",32.2,"8",7.7,2.9,"9.2","19","-1.66","-0.01","-1.29","0.59","0101000020E6100000A76906A7F48A1DC0E5034C2A649B4240",0,"2.10233203847537","0.225656953339195","-98.2763014843994",-6,"2014"
"11343",2014-01-08 16:04:07,37.2139852,-7.3857032,3,"\N",32.8,"8",7.9,2.1,"11.1","19.1","-1.36","0.81","-0.57","0.63","0101000020E6100000A6D997C7F58A1DC0FDE9F5DD639B4240",0,"1.68243870616436","0.758518752436884","55.9478433934281",1,"2014"
"11344",2014-01-08 16:34:04,37.2162868,-7.3855495,10,"\N",30.3,"7",13.1,2.7,"16.4","26.5","-2.08","0.22","0.04","1.3","0101000020E6100000E4F4F57CCD8A1DC03B472E49AF9B4240",0,"2.09198470357696","1.29749183528012","-2.17312933620031",8,"2014"
"11345",2014-01-08 17:03:54,37.2162345,-7.3854279,-5,"\N",33,"8",11.3,2,"21.3","22.6","-2.19","-0.87","-0.38","1.24","0101000020E610000024DD859CAD8A1DC02AE27492AD9B4240",0,"2.38692270507446","1.48299074641738","-50.498801382279",-7,"2014"
"11346",2014-01-08 17:34:01,37.2159283,-7.385632,-2,"\N",30.8,"6",10.6,2.4,"15.3","27.8","-1.77","0.2","-0.61","1.16","0101000020E61000000F2A711DE38A1DC0F463DD89A39B4240",0,"1.88281703837627","0.592139225871359","-2.82533187669512",-4,"2014"
"11347",2014-01-08 18:04:18,37.2159171,-7.3856073,21,"\N",30.2,"5",35.7,8.1,"13.8","37.1","-0.94","0.27","-0.35","1.6","0101000020E61000003C65DAA3DC8A1DC0D692E92BA39B4240",0,"1.03874924789383","0.33951726150178","25.6422372002347",19,"2014"
"11348",2014-01-08 18:34:20,37.2216288,-7.4233678,-7,"\N",26.3,"4",14,4.3,"32","60","-1.94","0.2","-1.5","3.23","0101000020E6100000C7B71C5487B11DC005ED1F555E9C4240",0,"2.46040647048409","0.0544740363022638","-106.149848628276",-10,"2014"
"11349",2014-01-08 19:04:57,37.2204366,-7.4234592,-3,"\N",26.3,"7",43.1,3.6,"28.6","14.8","-0.02","0.02","-0.01","0.41","0101000020E6100000E4C2DC499FB11DC0B4EB3944379C4240",0,"0.03","0.0181334514728446","72.0245293687508",-6,"2014"
"11350",2014-01-08 19:34:49,37.2202676,-7.423513,-3,"\N",26.7,"5",11.4,4.7,"18.7","14.6","0","-0.07","-3.66","1.13","0101000020E610000030B95164ADB11DC0282F8DBA319C4240",0,"3.66066933770315","2.920812130175","-178.638234156154",-6,"2014"
"11351",2014-01-08 20:04:41,37.2201838,-7.4234526,13,"\N",27.7,"4",11.6,4.4,"21.3","28.6","-0.89","-0.72","-1.62","1.43","0101000020E6100000EB9FF18E9DB11DC0F40D96FB2E9C4240",0,"1.983658236693","1.16072209785636","-134.424664397342",10,"2014"
"11352",2014-01-08 20:34:53,37.2204612,-7.4234689,3,"\N",25.2,"4",15.8,3.6,"25","12.4","-1.07","0.36","-0.15","1.57","0101000020E61000000C7ED1D4A1B11DC0BA049612389C4240",0,"1.13885907820063","0.592353758523977","21.6704175914316",0,"2014"
"11353",2014-01-08 21:05:08,37.2209471,-7.4233364,-22,"\N",24.5,"5",22.9,3.3,"14.2","27","-0.61","0.38","-0.95","1.44","0101000020E610000054D3E4187FB11DC0B1529CFE479C4240",0,"1.19121786420453","0.468037039802709","140.453147980109",-25,"2014"
"11354",2014-01-08 21:35:05,37.2211336,-7.4233828,13,"\N",25.1,"5",12.3,3.5,"12.2","9.2","-1.3","0.77","-0.89","0.65","0101000020E610000071C1BE428BB11DC0FC05161B4E9C4240",0,"1.75356779167502","0.609872868979131","77.5737563440497",10,"2014"
"11355",2014-01-08 22:05:26,37.2212693,-7.4234398,6,"\N",24.4,"5",41.3,4.9,"15.7","16.6","-0.21","0.06","-0.11","0.78","0101000020E6100000934CF3339AB11DC0EE8D6B8D529C4240",0,"0.24454038521275","0.0538659666079717","36.9300914192244",3,"2014"
"11356",2014-01-08 22:35:34,37.2210956,-7.4234097,12,"\N",24.7,"5",9.7,4,"43.3","23.7","-2.57","0.14","-0.58","2.24","0101000020E6100000973CF94F92B11DC00EA551DC4C9C4240",0,"2.63835175820056","1.10761023846986","-10.0464829481995",9,"2014"
"11357",2014-01-08 23:05:30,37.2214285,-7.4234325,5,"\N",24.4,"5",13.9,4.8,"39.1","32.2","-1.58","0.46","0.18","2.41","0101000020E61000000B410E4A98B11DC080F3E2C4579C4240",0,"1.65541535573402","1.15484330206306","12.6043406834807",2,"2014"
"11358",2014-01-08 23:35:57,37.221172,-7.4234181,10,"\N",26.5,"5",49,2.7,"8","29.7","-0.63","0.09","-0.36","1.49","0101000020E61000004923B08394B11DC03D65355D4F9C4240",0,"0.731163456417236","0.0985652269453436","4.56749701301093",7,"2014"
"11359",2014-01-09 00:06:39,37.2209549,-7.4234493,4,"\N",26.1,"6",35.2,2.4,"3.7","5.4","-0.04","0.01","-0.06","0.8","0101000020E61000006E0E7CB19CB11DC00BB20A40489C4240",0,"0.0728010988928052","0.0234890831039368","168.337765434816",1,"2014"
"11360",2014-01-09 00:36:36,37.22102,-7.4234237,4,"\N",23.9,"6",8.5,2.3,"9.7","8.5","-0.45","-0.12","-1.21","0.61","0101000020E6100000BF677FFB95B11DC087E123624A9C4240",0,"1.29653384066904","0.724964593353665","-165.857426607731",1,"2014"
"11361",2014-01-09 01:06:39,37.2216036,-7.4234283,4,"\N",25.3,"6",7.9,2.4,"6.9","11.5","-1.51","-0.07","-0.65","0.61","0101000020E6100000B3CD323097B11DC08356BB815D9C4240",0,"1.64544826719043","0.465192828186981","-34.6523994698851",1,"2014"
"11362",2014-01-09 01:36:53,37.2216851,-7.4234119,8,"\N",24,"5",9.8,3.8,"14.4","18.8","-0.64","0","-0.58","0.89","0101000020E6100000EAF29CE392B11DC05841672D609C4240",0,"0.863712915267567","0.113646944296262","-133.315170511369",5,"2014"
"11363",2014-01-09 02:07:06,37.2215748,-7.4234229,8,"\N",25.9,"6",31,2.7,"10.7","17.2","-0.32","0.08","0.32","0.63","0101000020E61000008A82CFC595B11DC012CF23905C9C4240",0,"0.459565011723042","0.454604002654456","4.79302800889107",5,"2014"
"11364",2014-01-09 02:37:17,37.2216,-7.4234069,18,"\N",25.5,"5",18.4,2.6,"18","41.2","-1.39","-0.44","-0.87","1.67","0101000020E61000005C9A119491B11DC0956588635D9C4240",0,"1.69782213438275","0.625056932820296","-80.1812082385552",15,"2014"
"11365",2014-01-09 03:07:42,37.2216661,-7.4234626,2,"\N",26.9,"4",19.5,5.8,"6.9","11.6","-1.24","-0.59","-1.05","0.97","0101000020E61000000751082EA0B11DC0E110058E5F9C4240",0,"1.72864108478307","0.758013709183374","-100.523120835884",-1,"2014"
"11366",2014-01-09 03:37:40,37.2216283,-7.4234358,6,"\N",28.2,"4",9.8,4,"18","24.9","-1.74","-0.81","-0.55","0.96","0101000020E610000088D2832799B11DC01D2FEE505E9C4240",0,"1.99654701923095","1.16235150889636","-62.1817186204593",3,"2014"
"11367",2014-01-09 04:08:02,37.2216374,-7.4234482,6,"\N",28,"9",39.8,2.1,"4.5","9.1","-0.66","-0.07","-0.3","0.59","0101000020E61000004533AA679CB11DC00549449D5E9C4240",0,"0.728354309385206","0.216536588450972","-45.5912079847908",3,"2014"
"11368",2014-01-09 04:38:23,37.2216587,-7.4234542,3,"\N",28.2,"7",35.3,4.1,"5.7","15.2","-0.51","0.11","-0.12","1.2","0101000020E6100000566A51FA9DB11DC0DBAFF14F5F9C4240",0,"0.535350352572967","0.223172314694835","11.1574764695706",0,"2014"
"11369",2014-01-09 05:08:33,37.2216176,-7.4234258,5,"\N",27.5,"8",7.4,2.8,"9.2","20.7","-2.79","0.5","-0.8","1.11","0101000020E61000006C216D8896B11DC0E81B2CF75D9C4240",0,"2.9451825070783","1.08404138601338","7.17186702991831",2,"2014"
"11370",2014-01-09 05:38:29,37.2216534,-7.4234458,4,"\N",26.7,"7",11.6,4.2,"17.8","35.7","-1.73","-0.86","-1.62","1.54","0101000020E6100000A4839AC69BB11DC00B067C235F9C4240",0,"2.52128935269239","1.12273470760886","-106.534104809909",1,"2014"
"11371",2014-01-09 06:08:18,37.2216851,-7.4234677,0,"\N",25.3,"7",8.8,4.7,"15.7","23.5","-1.24","-0.95","-1.7","1.25","0101000020E61000003CA64984A1B11DC05841672D609C4240",0,"2.30870093342555","1.29731888512104","-121.828002427453",-3,"2014"
"11372",2014-01-09 06:38:27,37.2215479,-7.4233783,7,"\N",25,"6",10,4.5,"14.2","17","-0.59","-0.86","-1.79","1.17","0101000020E61000002558C1148AB11DC0AD7F7CAE5B9C4240",0,"2.07166599624553","1.46959265981645","-140.790217174924",4,"2014"
"11373",2014-01-09 07:08:19,37.225145,-7.4249546,2,"\N",21.8,"6",10.2,3.8,"26.4","14.2","-1.14","-1.99","0.39","1.45","0101000020E61000009923754C27B31DC0D0ED258DD19C4240",0,"2.32632757796489","2.28050948976661","-68.4183693074064",1,"2014"
"11374",2014-01-09 07:38:13,37.2252651,-7.4252367,5,"\N",24.5,"6",12.4,3.9,"27","18.5","-1.08","-0.74","0.02","0.93","0101000020E6100000613CDE3F71B31DC010B79E7CD59C4240",0,"1.30935098426663","1.06298213899786","-55.2471214646636",3,"2014"
"11375",2014-01-09 08:08:38,37.2246454,-7.4254286,0,"\N",19.9,"7",29.6,3.4,"6","9.3","-0.52","0.15","-0.08","0.59","0101000020E6100000DC210F8EA3B31DC03219332EC19C4240",0,"0.547083174663597","0.272445190560053","17.4148317099161",-1,"2014"
"11376",2014-01-09 08:38:26,37.2247284,-7.4254336,0,"\N",23.8,"6",9.8,3.4,"7.8","11.1","-1.26","0.19","-0.29","0.62","0101000020E61000006A7A9ADDA4B31DC0BF3D74E6C39C4240",0,"1.30682822130531","0.540377401755488","2.7121312624909",-1,"2014"
"11377",2014-01-09 09:08:17,37.211522,-7.3991303,4,"\N",17,"6",9,3.5,"22.9","26.9","-14.99","3.52","2.36","7.35","0101000020E6100000E55E059DB5981DC038312427139B4240",0,"15.5775511554288","11.2522221520446","7.97049821150252",-1,"2014"
"11378",2014-01-09 09:38:09,37.2111218,-7.3989297,-2,"\N",33.4,"6",9.2,4.2,"12.4","17.3","-1.32","-0.17","-0.25","0.82","0101000020E6100000C49CFB0681981DC0803C050A069B4240",0,"1.35417871789509","0.670970704820897","-30.3046471757245",-7,"2014"
"11379",2014-01-09 10:08:39,37.2106998,-7.3988925,5,"\N",33.1,"7",31.4,4.3,"11","19.4","-0.43","0.09","-0.08","1.24","0101000020E61000008D7A884677981DC00A230736F89A4240",0,"0.446542271235322","0.20400440828644","9.55875847280399",2,"2014"
"11380",2014-01-09 10:38:53,37.2111409,-7.3861843,0,"\N",29.2,"6",21.5,5.6,"18.6","33.1","-0.83","-0.3","-0.09","2.15","0101000020E610000024EAAAE5738B1DC08B2C3EAA069B4240",0,"0.887130204648675","0.570630883130676","-45.1016986410449",1,"2014"
"11381",2014-01-09 11:08:50,37.2159866,-7.3850789,20,"\N",29.2,"6",10.9,3.4,"26.3","33.7","-1.58","-0.42","-0.6","1.26","0101000020E6100000C484871F528A1DC0E7AFEB72A59B4240",0,"1.74149361181717","0.758336009899472","-54.7914228703539",18,"2014"
"11382",2014-01-09 11:39:06,37.2164735,-7.385967,-3,"\N",30.5,"5",19,6.9,"19.5","28.2","-0.61","-0.34","-0.22","1.52","0101000020E61000004757E9EE3A8B1DC0AF795567B59B4240",0,"0.732188500319419","0.446875908232632","-68.4353274687213",-4,"2014"
"11383",2014-01-09 12:09:33,37.2143144,-7.3857433,-2,"\N",31.1,"8",38.1,1.7,"6.7","9","-0.05","0","-0.05","0.6","0101000020E6100000BE9AA84A008B1DC0EB877DA76E9B4240",0,"0.0707106781186548","0.01174476829861","-146.820759966497",-4,"2014"
"11384",2014-01-09 12:39:26,37.2136065,-7.3860201,0,"\N",32.6,"9",7.4,1.6,"10.5","15","-1.19","-0.24","-0.93","0.52","0101000020E6100000046564DA488B1DC044DB3175579B4240",0,"1.52924818129694","0.393634364113002","-96.6482307461509",-1,"2014"
"11385",2014-01-09 13:09:46,37.2136455,-7.3860362,4,"\N",33.7,"7",7.8,2.5,"\N","\N","\N","\N","\N","\N","0101000020E6100000D949D8124D8B1DC002B859BC589B4240",0,"\N","\N","\N",3,"2014"
"11386",2014-01-09 13:39:42,37.2145363,-7.3857416,-10,"\N",31.8,"7",7.9,2.8,"16.8","23.6","-2.15","-0.21","-1.42","0.81","0101000020E6100000ADD392D8FF8A1DC00527ECEC759B4240",0,"2.58514989894203","0.505111746416766","-73.6309036655051",-12,"2014"
"11387",2014-01-09 14:09:34,37.2139421,-7.3855753,4,"\N",39.1,"6",8.1,3,"14.9","17.6","-1.68","0.79","-0.35","0.69","0101000020E6100000E1945E40D48A1DC0685E6974629B4240",0,"1.88917971617313","0.972947563677755","35.6806874567349",2,"2014"
"11388",2014-01-09 14:39:52,37.2139423,-7.3857965,-4,"\N",38.4,"5",18.3,6.8,"15.5","21.7","-0.12","-0.08","-0.11","1.21","0101000020E610000022A5D93C0E8B1DC092DD1676629B4240",0,"0.181383571472171","0.097248377647208","-102.983468604764",-6,"2014"
"11389",2014-01-09 15:10:09,37.2138205,-7.3860245,-3,"\N",37.2,"7",27.4,3.6,"11.9","14.3","-0.31","-0.01","-0.16","0.88","0101000020E6100000ABD1AB014A8B1DC0705B5B785E9B4240",0,"0.348998567332303","0.0762217472438886","-40.7640770666989",-4,"2014"
"11390",2014-01-09 15:40:10,37.213767,-7.3860852,-4,"\N",30.3,"6",20.6,6.1,"19.8","13","-0.17","-0.08","-0.11","1.2","0101000020E6100000E4E02DEB598B1DC065FB90B75C9B4240",0,"0.217715410570772","0.10151729916668","-85.4014215903022",-5,"2014"
"11391",2014-01-09 16:10:18,37.2122194,-7.3903915,-4,"\N",30.5,"5",20.8,8,"34.3","20.4","-1.38","-0.7","0.25","2.87","0101000020E6100000A88B14CAC28F1DC0D3495B012A9B4240",0,"1.56745015869724","1.3058354290844","-41.877245688165",-6,"2014"
"11392",2014-01-09 16:40:29,37.2109109,-7.3988867,-1,"\N",32.7,"5",8,4,"22.7","18.5","-1.87","-0.65","0.25","0.69","0101000020E6100000CA3C4DC175981DC05AEFDC20FF9A4240",0,"1.99546986947937","1.54813058726266","-34.8838957815106",-6,"2014"
"11393",2014-01-09 17:10:47,37.2098595,-7.3996691,-14,"\N",29.1,"5",34.1,5.2,"12.3","13.5","0.12","-0.41","-0.45","0.98","0101000020E610000013E346DB42991DC0A1A014ADDC9A4240",0,"0.620483682299543","0.605552174831331","-139.766248428008",-17,"2014"
"11394",2014-01-09 17:40:54,37.2098701,-7.3998646,-22,"\N",27.5,"5",17.5,5.9,"15.7","18.3","-0.05","-0.04","-0.01","1.41","0101000020E6100000FF4F0F1B76991DC042F4FF05DD9A4240",0,"0.0648074069840786","0.0498319312114433","-67.7046494466668",-25,"2014"
"11395",2014-01-09 18:12:03,37.2098875,-7.3995736,-4,"\N",27.6,"5",62.5,3,"10.5","16","-0.39","0.37","-0.28","1.21","0101000020E6100000446161D229991DC06B2BF697DD9A4240",0,"0.60613529842767","0.319170034772615","82.8546286926838",-7,"2014"
"11396",2014-01-09 18:41:49,37.2099002,-7.3995399,-1,"\N",27.7,"7",8.9,2,"11.1","18.3","-1.35","-0.3","-1.21","0.68","0101000020E6100000D7C9CFFC20991DC041367F02DE9A4240",0,"1.83755272033213","0.503657829686109","-110.628676175365",-4,"2014"
"11397",2014-01-09 19:11:41,37.2215086,-7.4232496,0,"\N",24.8,"6",9.1,2.4,"12.1","17.4","-1.35","-0.88","0.07","0.8","0101000020E61000002A2ED85768B11DC03164D0645A9C4240",0,"1.61300960939481","1.31570699943597","-52.7310422828097",-4,"2014"
"11398",2014-01-09 19:41:50,37.2217438,-7.4234014,-2,"\N",28.8,"5",10.3,2.8,"11.3","24.6","-2.48","0.49","-0.65","1.51","0101000020E61000008D52F82290B11DC09E8BD019629C4240",0,"2.61017240809874","1.02177017820753","9.32009060509145",-5,"2014"
"11399",2014-01-09 20:11:45,37.221617,-7.4234236,3,"\N",28.9,"5",13.5,2.2,"15.2","18.8","-1.39","-0.2","-1.8","0.88","0101000020E6100000186BC9F495B11DC06B9E23F25D9C4240",0,"2.28300240910955","0.722012864224086","-148.438330748787",0,"2014"
"11400",2014-01-09 20:41:40,37.2217029,-7.4233673,0,"\N",27,"5",16.7,2,"19.9","13.2","-2.98","-2.46","-2.18","1.34","0101000020E610000085C88E3287B11DC0D476B8C2609C4240",0,"4.43671049314692","2.82789993441456","-92.8518202565692",-3,"2014"
"11401",2014-01-09 21:12:08,37.221755,-7.4234253,5,"\N",25.8,"6",36.8,2.1,"6","8.3","-0.47","-0.06","-0.18","0.47","0101000020E61000002A32DF6696B11DC0BC5CC477629C4240",0,"0.506853035898967","0.17994936338128","-41.919486428986",2,"2014"
"11402",2014-01-09 21:42:23,37.221541,-7.423424,7,"\N",26,"6",12.1,2,"18.2","12.7","-1.02","0.56","-1.04","0.74","0101000020E6100000B35DA10F96B11DC090DC9A745B9C4240",0,"1.56064089399195","0.457327538742658","112.168420624895",4,"2014"
"11403",2014-01-09 22:12:36,37.2209871,-7.4234563,4,"\N",24.4,"6",33.3,2.2,"16.2","7.5","0.06","-0.01","-0.79","1.21","0101000020E610000002243F879EB11DC040AB274E499C4240",0,"0.792338311581612","0.665857935360056","-179.813783975762",1,"2014"
"11404",2014-01-09 22:42:39,37.220937,-7.4234829,12,"\N",26.6,"5",12.5,3.2,"14.6","14","-0.45","1","-0.38","0.84","0101000020E610000034A95780A5B11DC0F9BCE2A9479C4240",0,"1.16056020955399","0.93458438190462","87.2110197742134",9,"2014"
"11405",2014-01-09 23:12:56,37.2210765,-7.4235108,-24,"\N",25.7,"4",21.7,7.4,"22.2","61.7","-4.91","0.26","-1.79","3.47","0101000020E6100000DD02AED0ACB11DC003B5183C4C9C4240",0,"5.23257106975147","1.58542473159898","-13.7399729144218",-27,"2014"
"11406",2014-01-09 23:43:09,37.2213179,-7.423472,-2,"\N",24.7,"6",26.8,4.1,"6.8","17.7","-0.47","-0.12","-0.27","1.21","0101000020E61000003C16DBA4A2B11DC07C421B25549C4240",0,"0.55515763527128","0.18870471058573","-72.2474981763638",-5,"2014"
"11407",2014-01-10 00:13:01,37.2212786,-7.4234903,1,"\N",25.5,"5",11.2,4.1,"30.7","40.4","-1.03","-0.33","-0.58","2.19","0101000020E610000063B1F270A7B11DC0FF266FDB529C4240",0,"1.22727340067322","0.478363933292293","-74.2096213358323",-2,"2014"
"11408",2014-01-10 00:43:07,37.2216646,-7.4234001,-3,"\N",26.2,"5",9.4,4,"17.1","8.5","-0.93","-0.24","-0.84","0.55","0101000020E6100000167EBACB8FB11DC028D76F815F9C4240",0,"1.2759702190882","0.38094340627998","-109.922777439088",-6,"2014"
"11409",2014-01-10 01:13:12,37.2217753,-7.4235174,0,"\N",27.4,"5",10.8,3.7,"33.6","16.6","-3.18","-1.61","1.13","1.87","0101000020E6100000D625998BAEB11DC0C1470E22639C4240",0,"3.73917103112441","3.349586568302","-36.8189776142089",-3,"2014"
"11410",2014-01-10 01:43:12,37.2216999,-7.4234599,-2,"\N",27.5,"5",14.8,2.5,"22.2","19.9","-2.18","-0.68","0.19","1.9","0101000020E610000073ABD6789FB11DC063038EA9609C4240",0,"2.29148423516288","1.70002529218169","-34.216466906814",-5,"2014"
"11411",2014-01-10 02:16:02,37.2216543,-7.4234181,9,"\N",28.5,"4",160.4,3.5,"15.2","19.3","-0.43","0.03","-0.02","0.84","0101000020E61000004923B08394B11DC046C2082B5F9C4240",0,"0.431508980207828","0.245704661562529","-6.02924091152289",6,"2014"
"11412",2014-01-10 02:46:42,37.2217023,-7.4234405,8,"\N",28.6,"5",49.1,2.8,"12.8","11","-0.04","0.02","0.3","1.34","0101000020E61000002235ED629AB11DC057F9AFBD609C4240",0,"0.303315017762062","0.264852841470465","3.17396368082565",5,"2014"
"11413",2014-01-10 03:16:41,37.2216489,-7.423429,5,"\N",27.6,"4",8.4,4.5,"23.3","16.9","-1.13","0.05","-0.33","0.63","0101000020E610000041B62C5F97B11DC0E158BCFD5E9C4240",0,"1.17826143109244","0.42988788252886","-12.9606882187229",2,"2014"
"11414",2014-01-10 03:46:34,37.2216459,-7.4234349,5,"\N",28.6,"4",9.6,3,"8.5","19.9","-1.49","0.41","-0.83","1","0101000020E6100000ACF01DEB98B11DC070E591E45E9C4240",0,"1.75416646872525","0.340543052216823","38.9443990906626",2,"2014"
"11415",2014-01-10 04:17:08,37.2216501,-7.4234445,4,"\N",27.9,"9",35.7,2,"7.3","16.6","-0.67","0.03","-0.23","0.87","0101000020E61000002DAF5C6F9BB11DC0DB53CD075F9C4240",0,"0.709013399027127","0.228265381989572","-14.4127163662804",1,"2014"
"11416",2014-01-10 04:47:08,37.2216596,-7.4234628,9,"\N",26.3,"7",12.1,5,"18","66.2","-1.49","0.16","-0.68","2.57","0101000020E6100000554A743BA0B11DC0176C7E575F9C4240",0,"1.6456305782283","0.366334046371521","-5.30205383564968",6,"2014"
"11417",2014-01-10 05:16:58,37.2216871,-7.4234471,6,"\N",27.1,"7",10.3,2.4,"8.2","18.9","-1.12","-0.17","-0.35","0.87","0101000020E61000001B58D81D9CB11DC0F8382E3E609C4240",0,"1.18566437072217","0.492348450999187","-39.5163762101258",3,"2014"
"11418",2014-01-10 05:47:07,37.2215527,-7.4235897,-25,"\N",24.6,"7",11.5,5,"30.8","51.6","-3.65","-1.96","-3.66","2.81","0101000020E610000097B0917FC1B11DC0956BC0D65B9C4240",0,"5.52808285031981","2.56990184558653","-109.983845796947",-28,"2014"
"11419",2014-01-10 06:16:58,37.2215983,-7.4234884,-16,"\N",26,"6",10.7,4,"17.6","49.1","-2.92","-0.77","-1.91","2.46","0101000020E610000004F170F1A6B11DC0B2AC45555D9C4240",0,"3.57314987091222","1.15347002449033","-81.5054179593062",-19,"2014"
"11420",2014-01-10 06:46:50,37.2215636,-7.4234485,10,"\N",26.7,"6",10.9,4,"27.9","25.6","-1.43","-1.32","-0.67","1.59","0101000020E61000003929CC7B9CB11DC0F5FD2F325C9C4240",0,"2.0582030997936","1.50996504139203","-81.5812289756643",7,"2014"
"11421",2014-01-10 07:17:06,37.2212393,-7.4234438,22,"\N",24.1,"6",19,3.7,"7.3","18.9","-0.58","0.15","-0.23","1.61","0101000020E61000009FC662409BB11DC0830BC391519C4240",0,"0.641716448285378","0.191283185104561","22.6963107983535",19,"2014"
"11422",2014-01-10 08:17:26,37.2253213,-7.4254129,1,"\N",25.8,"9",39.3,1.9,"5.6","7.3","-0.43","0.16","-0.16","0.44","0101000020E6100000A32F73709FB31DC0CD4B0F54D79C4240",0,"0.485901224530254","0.17632783983399","35.7770361327669",-1,"2014"
"11423",2014-01-10 08:47:19,37.2104583,-7.3993865,2,"\N",16.6,"8",8.7,2.2,"12.3","11.9","-0.96","0.56","-0.47","0.79","0101000020E61000000ADB4FC6F8981DC0FCD52D4CF09A4240",0,"1.20668968670491","0.496387755563084","60.422536555587",0,"2014"
"11424",2014-01-10 09:17:28,37.2103082,-7.3994643,1,"\N",31.9,"8",9.9,2.3,"8.8","12.5","-1.12","0.67","-0.85","0.72","0101000020E61000009AAD612B0D991DC0528A0C61EB9A4240",0,"1.55749799357816","0.522289302458957","84.8486842612311",-1,"2014"
"11425",2014-01-10 09:47:20,37.2099573,-7.3994451,0,"\N",32.5,"6",10.1,3.3,"12.5","17.7","-0.79","0.77","-0.7","1.02","0101000020E61000009730E42208991DC03A877CE1DF9A4240",0,"1.30652210084637","0.662273323274419","92.0563770346834",-3,"2014"
"11426",2014-01-10 10:17:35,37.210024,-7.3995183,-1,"\N",33.4,"7",32.2,2.8,"9.7","11.5","-0.63","0.55","-0.38","1.24","0101000020E6100000349D42531B991DC003B00111E29A4240",0,"0.918585869693193","0.479045929623092","75.7391391628233",-3,"2014"
"11427",2014-01-10 10:48:01,37.2095968,-7.3996324,-1,"\N",32.1,"7",7.7,3.2,"11.3","19.6","-0.98","0.65","-0.67","0.69","0101000020E61000001EB0613C39991DC052AC6411D49A4240",0,"1.35344006147299","0.528844992443492","78.5791030356603",-4,"2014"
"11428",2014-01-10 11:17:57,37.2089271,-7.3997036,-4,"\N",32.5,"7",7.6,2.3,"9.7","14.7","-2.05","-0.5","-0.93","0.58","0101000020E6100000B55F88E64B991DC0C2DF8A1FBE9A4240",0,"2.30594882857361","0.88297247583532","-59.3802284013356",-8,"2014"
"11429",2014-01-10 11:47:50,37.2093631,-7.3997685,-6,"\N",27.4,"6",8.8,2.9,"10.2","16","-1.23","-0.44","-0.9","0.54","0101000020E610000048E2E5E95C991DC09DBEF968CC9A4240",0,"1.58634800721658","0.594900913999976","-91.2940268774767",-9,"2014"
"11430",2014-01-10 12:18:26,37.2140141,-7.3875846,2,"\N",31.1,"6",36.9,2.9,"15.3","12.1","-0.35","0.14","0.06","0.54","0101000020E6100000A4BB35FAE28C1DC0023164D0649B4240",0,"0.381706693679846","0.284509968700301","19.2573259859555",-2,"2014"
"11431",2014-01-10 12:48:22,37.2160725,-7.385477,2,"\N",26.1,"6",9.3,2.5,"13.9","18.6","-0.81","-0.05","-0.32","0.75","0101000020E6100000D670917BBA8A1DC051888043A89B4240",0,"0.872353139502576","0.274242045989623","-34.0887049747407",0,"2014"
"11432",2014-01-10 13:18:16,37.2143178,-7.3857647,-1,"\N",29.5,"6",11.5,2.6,"15.3","19.8","-1.71","0.12","-0.23","0.67","0101000020E610000015CEC9E6058B1DC0B0F902C46E9B4240",0,"1.72956641965552","0.857731906369284","-6.74994590213486",-3,"2014"
"11433",2014-01-10 13:48:23,37.2142215,-7.3853076,-4,"\N",30.7,"5",10.7,3.5,"21","40.9","-3.1","0.39","-1.03","2","0101000020E6100000DB9953138E8A1DC0CF4C309C6B9B4240",0,"3.28983282250026","1.06942852924541","-0.62757053912737",-6,"2014"
"11434",2014-01-10 14:18:38,37.2142927,-7.3853548,0,"\N",33.9,"10",33.9,1.7,"8.7","10.7","-0.2","-0.01","-0.02","0.38","0101000020E61000002E6DDD729A8A1DC0C22275F16D9B4240",0,"0.201246117974981","0.109224355418","-19.0363384050817",-2,"2014"
"11435",2014-01-10 14:48:36,37.2143533,-7.3854743,-10,"\N",34.2,"8",8.2,2.5,"10.7","24.2","-1.16","0.37","-0.81","0.8","0101000020E610000042CB5FC6B98A1DC014A5CEED6F9B4240",0,"1.46239529539725","0.231854743574467","69.9617094506899",-12,"2014"
"11436",2014-01-10 15:18:27,37.2142905,-7.3854525,-10,"\N",34.2,"8",7.4,2.3,"16.5","22.4","-1.9","-1.17","-1.79","0.79","0101000020E610000051A5660FB48A1DC0F7AB00DF6D9B4240",0,"2.86059434383836","1.45421643370395","-105.021068782755",-12,"2014"
"11437",2014-01-10 15:48:36,37.2139185,-7.385562,-6,"\N",32.9,"7",8.6,2.7,"14.9","16.6","-0.36","0.06","-0.95","0.71","0101000020E61000004852D2C3D08A1DC033C170AE619B4240",0,"1.01769347054995","0.53614342224792","178.586465408709",-8,"2014"
"11438",2014-01-10 16:18:28,37.2139954,-7.3855199,0,"\N",30.8,"6",8.8,2.8,"18.3","20.6","-1.8","0.03","-0.28","0.74","0101000020E61000002AD489BAC58A1DC04A3F8633649B4240",0,"1.82189461824772","0.882290424541337","-13.2105427021259",-2,"2014"
"11439",2014-01-10 16:48:21,37.2139874,-7.3854374,-4,"\N",30,"6",10,3.5,"39.5","22.7","-3.1","-1.53","0.27","1.84","0101000020E6100000FF9E0E1AB08A1DC0C7606AF0639B4240",0,"3.46753514762288","2.73747746641753","-44.4140417374561",-6,"2014"
"11440",2014-01-10 17:18:57,37.2139326,-7.3856416,-6,"\N",29.4,"7",38,2.3,"7.3","6.9","-0.12","-0.13","-0.02","0.44","0101000020E610000090E8AFA1E58A1DC02D46B824629B4240",0,"0.178044938147649","0.151480813163375","-72.3462838586379",-8,"2014"
"11441",2014-01-10 17:48:53,37.2139592,-7.3855782,-5,"\N",27,"6",10.4,2.5,"31","19.2","-1.16","-1.16","-0.11","1.68","0101000020E6100000C333FC02D58A1DC0D356DB03639B4240",0,"1.64417152389889","1.39891029533615","-68.2685996816567",-7,"2014"
"11442",2014-01-10 18:18:50,37.2139272,-7.3860214,1,"\N",26.2,"5",15.4,4.5,"22.7","26.4","-1.17","-0.51","-1.19","1.28","0101000020E61000007B39A231498B1DC0C8DC6BF7619B4240",0,"1.74502148983902","0.715640127894231","-113.521858277824",0,"2014"
"11443",2014-01-10 18:49:39,37.2217111,-7.4234318,0,"\N",28,"6",40.7,3.1,"6.5","17","-0.12","0.06","-0.21","0.77","0101000020E61000007D58141B98B11DC081D48107619C4240",0,"0.249198715887542","0.100674963894476","154.088634846164",-3,"2014"
"11444",2014-01-10 19:19:35,37.2216886,-7.423411,4,"\N",29.5,"5",13,3.4,"15.1","19.2","-1.45","-0.14","-0.83","1.08","0101000020E61000000E1137A792B11DC0B172C34A609C4240",0,"1.67660370988496","0.381501070235321","-58.7551892121083",1,"2014"
"11445",2014-01-10 19:49:25,37.2217509,-7.4234481,3,"\N",28.5,"4",11.2,3.6,"14.6","21.9","-1.93","0.38","-0.43","1.1","0101000020E61000009E36F4609CB11DC0E6AD5F55629C4240",0,"2.01350440774288","0.854522834303348","8.57795258225616",0,"2014"
"11446",2014-01-10 20:19:38,37.2217798,-7.4234422,2,"\N",28.8,"6",32.3,2.8,"8.3","13.2","-1.36","0.12","-0.39","0.74","0101000020E610000034FC02D59AB11DC0EBF4CD47639C4240",0,"1.41989436226784","0.517709173853767","-6.28988246771168",-1,"2014"
"11447",2014-01-10 20:49:55,37.2216278,-7.423442,2,"\N",28.3,"5",9.6,3.7,"15","20.3","-1.09","-0.96","-1.11","1.03","0101000020E6100000E60297C79AB11DC03571BC4C5E9C4240",0,"1.82805908000808","1.13457738540715","-105.599883820835",-1,"2014"
"11448",2014-01-10 21:19:47,37.2217649,-7.4234736,-3,"\N",27,"5",9.8,4.4,"17.2","19.5","-1.17","-0.67","-0.65","0.94","0101000020E6100000A7E03A10A3B11DC04A73D0CA629C4240",0,"1.49676317431984","0.826138890414353","-80.8168429999893",-6,"2014"
"11449",2014-01-10 21:49:55,37.2214686,-7.4234064,5,"\N",25.6,"4",26,5,"17.8","31.2","-1.21","-0.53","-0.74","2.12","0101000020E61000001BAB837291B11DC0A30B4515599C4240",0,"1.5141334155219","0.688491055485094","-82.0599757004373",2,"2014"
"11450",2014-01-10 22:20:06,37.2213007,-7.4234685,-6,"\N",25.2,"4",13.2,3.6,"12.7","22.5","-2","-0.33","-0.59","1.32","0101000020E6100000728BF9B9A1B11DC07C8AD294539C4240",0,"2.11116081812826","0.915774661532647","-39.7545218176201",-9,"2014"
"11451",2014-01-10 22:50:38,37.2210722,-7.4234976,5,"\N",24.3,"6",53.2,3.8,"11.1","18.8","-0.24","-0.01","-0.05","1.02","0101000020E6100000EBBCD75AA9B11DC0038706184C9C4240",0,"0.245356882927706","0.111167433815549","-21.6007029189402",2,"2014"
"11452",2014-01-10 23:20:52,37.2209329,-7.4234502,-5,"\N",23.2,"6",11.6,3.3,"14.9","41.1","-2.17","-0.08","-0.93","1.98","0101000020E61000004BF0E1ED9CB11DC0230E7E87479C4240",0,"2.36224469519989","0.661191136055083","-32.9572479138941",-8,"2014"
"11453",2014-01-10 23:51:07,37.2208579,-7.4234895,1,"\N",27,"5",18.8,7.7,"11.2","17.7","-0.38","-0.2","-0.2","1.66","0101000020E61000002DCC423BA7B11DC018C85812459C4240",0,"0.47370877129308","0.253041479906705","-77.9008117043511",-2,"2014"
"11454",2014-01-11 00:21:39,37.2208572,-7.4234426,6,"\N",27.7,"6",42.9,2.3,"9.3","15.9","-0.17","-0.09","-0.3","0.88","0101000020E6100000CEEEDAEF9AB11DC0068B790C459C4240",0,"0.356370593624109","0.181910344404742","-142.313220598208",3,"2014"
"11455",2014-01-11 00:51:27,37.2208523,-7.4234222,7,"\N",27.1,"7",7.3,2.1,"14.6","25.1","-0.59","-0.09","-0.18","1.59","0101000020E6100000FB99D59695B11DC089DF5EE3449C4240",0,"0.623377895020348","0.262304489786647","-39.1127061225771",4,"2014"
"11456",2014-01-11 01:21:36,37.2208786,-7.4234637,5,"\N",26.6,"6",8.5,2.3,"12","10.7","-0.77","-0.3","-0.09","0.65","0101000020E6100000312CDA77A0B11DC071B1FDBF459C4240",0,"0.831264097624816","0.54045290752658","-47.2662559462353",2,"2014"
"11457",2014-01-11 01:51:42,37.2211974,-7.4234183,4,"\N",22.5,"5",22.6,2.3,"21.6","31.6","-0.22","-0.01","-0.35","1.36","0101000020E6100000961C1C9194B11DC0E97A4732509C4240",0,"0.413521462562707","0.15242813074497","-165.431878834569",1,"2014"
"11458",2014-01-11 02:22:08,37.2216483,-7.4234172,8,"\N",25.6,"7",40.8,2.1,"5","4.3","-0.05","0.09","-0.11","0.42","0101000020E61000006D414A4794B11DC064DBB3F85E9C4240",0,"0.150665191733194","0.0970080587139652","121.417782856563",5,"2014"
"11459",2014-01-11 02:51:59,37.2215556,-7.42345,2,"\N",25.7,"6",8.1,2.4,"5.7","10.8","-0.96","0.18","-1.17","0.58","0101000020E6100000FDF675E09CB11DC0721F14EF5B9C4240",0,"1.52410629550566","0.346082055843821","170.946568080611",-1,"2014"
"11460",2014-01-11 03:22:12,37.2214698,-7.4234461,3,"\N",22.8,"6",13.3,3.1,"13.7","26.4","-0.87","0.13","-1.32","1.45","0101000020E61000009879BCDA9BB11DC09D06561F599C4240",0,"1.58625344759279","0.519372778747979","178.178887212493",0,"2014"
"11461",2014-01-11 03:52:01,37.2216126,-7.4234181,2,"\N",24.6,"6",10.5,4.5,"5.3","17.7","-2.24","0.83","-1.4","1.05","0101000020E61000004923B08394B11DC0D6B03ACD5D9C4240",0,"2.76884452434585","0.609099730608793","61.175624502583",-1,"2014"
"11462",2014-01-11 04:22:05,37.2216298,-7.4234471,2,"\N",26.4,"8",22.7,2.4,"6.5","13.4","-0.19","0.04","-0.14","1.35","0101000020E61000001B58D81D9CB11DC0D668835D5E9C4240",0,"0.239374184071716","0.0161244347582518","69.6339259869062",-1,"2014"
"11463",2014-01-11 04:52:18,37.2216518,-7.4234487,0,"\N",26,"7",12,4,"15.8","45.2","-1.83","0.04","-0.82","1.93","0101000020E6100000862238899CB11DC0BD0C10165F9C4240",0,"2.00571682946522","0.489170490987816","-23.719559723663",-3,"2014"
"11464",2014-01-11 05:22:11,37.2216542,-7.42346,4,"\N",26.3,"7",13.2,2.8,"7.9","18.8","-1.15","-0.01","-0.59","0.93","0101000020E61000001AA88C7F9FB11DC0B202322A5F9C4240",0,"1.2925556080881","0.27050426515061","-35.8691078326823",1,"2014"
"11465",2014-01-11 05:52:15,37.2216626,-7.4235003,-2,"\N",27.5,"6",25.3,6.4,"21.7","43.1","-1.12","-0.55","-1.08","2.36","0101000020E61000007F620910AAB11DC088DFA8705F9C4240",0,"1.6502424064361","0.727789714226014","-108.52071986133",-5,"2014"
"11466",2014-01-11 06:22:22,37.221719,-7.4234334,5,"\N",24.9,"6",8.6,5,"12.9","19.8","-1.07","-0.57","-1.03","1.11","0101000020E6100000E822748698B11DC06FF3C649619C4240",0,"1.59081739995513","0.737942698185233","-107.582621066135",2,"2014"
"11467",2014-01-11 06:52:15,37.2214623,-7.4234187,5,"\N",23.6,"6",9.8,3.8,"10.2","15","-1.54","-0.47","-0.41","0.78","0101000020E6100000310FF4AB94B11DC002E66BE0589C4240",0,"1.66150534155025","0.869738610601377","-49.8742745213917",2,"2014"
"11468",2014-01-14 13:14:25,37.2112431,-7.3992765,13,"\N",34.2,"6",74.5,2,"4.9","8","0.11","-0.04","0.2","0.58","0101000020E6100000D13E56F0DB981DC0B9008F030A9B4240",0,"0.231732604525129","0.0937333241985414","-15.7866857258027",11,"2014"
"11469",2014-01-14 13:44:43,37.2107869,-7.39939,11,"\N",35.1,"6",9.1,2.4,"7.1","7.5","-1.24","0.54","-1.36","0.6","0101000020E6100000D46531B1F9981DC06EF6AC10FB9A4240",0,"1.91801981220216","0.479264669487061","128.358960514306",9,"2014"
"11470",2014-01-14 14:14:40,37.2120794,-7.3988879,6,"\N",32,"5",10.1,4.1,"7.9","17.7","-1.65","-0.08","-2.26","1.21","0101000020E61000009A14D51176981DC0E193F36A259B4240",0,"2.79937493022996","0.867120600878001","-160.334202151834",4,"2014"
"11471",2014-01-14 14:44:31,37.2117985,-7.3988352,5,"\N",23.7,"5",9.3,3.5,"11","11.9","-0.72","-1.41","-1.71","0.71","0101000020E610000077F9314168981DC0C26B97361C9B4240",0,"2.33036477831261","1.81777924360421","-124.893207450031",3,"2014"
"11472",2014-01-14 15:14:41,37.2119654,-7.3987513,6,"\N",31.9,"4",11.5,4.2,"7.7","15.6","-1.46","-0.05","-1.44","0.96","0101000020E61000002FF3C24252981DC01871A6AE219B4240",0,"2.05126790059222","0.363504888157804","-139.184979140071",4,"2014"
"11473",2014-01-14 15:44:31,37.2120162,-7.3985873,12,"\N",28.7,"4",9.7,4.2,"12.3","25.1","-2.65","-0.19","-0.79","1.45","0101000020E61000005D67E84427981DC0719CCA58239B4240",0,"2.77176838859238","1.08360267832854","-29.261537759692",10,"2014"
"11474",2014-01-14 16:15:10,37.212071,-7.3990061,4,"\N",31.7,"7",56.7,2.4,"4.5","7","-0.45","0.01","0.01","0.79","0101000020E6100000379E190E95981DC00BB77C24259B4240",0,"0.450222167379617","0.282732002006458","-9.78146535830688",2,"2014"
"11475",2014-01-14 16:45:17,37.2109033,-7.3993419,12,"\N",30,"7",8.2,2.6,"7.4","16.3","-3.47","0.88","-1.15","0.97","0101000020E6100000A4B04115ED981DC02A0F1CE1FE9A4240",0,"3.76002659565062","1.30508159230322","19.0416880915677",10,"2014"
"11476",2014-01-14 17:15:12,37.2105818,-7.3993476,4,"\N",34.1,"7",11.4,2.3,"7.7","11.1","-1.33","-1","-0.62","0.59","0101000020E6100000C1F1C693EE981DC000112C58F49A4240",0,"1.77575336125263","1.18470295082949","-79.0048506867925",2,"2014"
"11477",2014-01-14 17:45:06,37.2106275,-7.3992471,25,"\N",28.1,"7",13.6,2.1,"12.6","18.9","-2.52","0.26","-0.48","0.99","0101000020E61000006417563BD4981DC0B21188D7F59A4240",0,"2.5784491462893","1.15117408622352","-3.32148276243923",23,"2014"
"11478",2014-01-14 18:14:59,37.2205536,-7.4225541,17,"\N",25.1,"5",14.8,4.6,"15.9","14.1","-1.26","-1.06","-0.33","1.17","0101000020E6100000B129A105B2B01DC0EE81B1193B9C4240",0,"1.67931533667742","1.28131172514785","-71.330746236068",13,"2014"
"11479",2014-01-14 18:45:40,37.220496,-7.4226632,2,"\N",29.7,"6",31.9,2.6,"4.6","11.2","-0.38","0.01","-0.37","1.06","0101000020E61000000DE4349FCEB01DC00C738236399C4240",0,"0.530471488394994","0.0766862262833602","-149.279519147504",-2,"2014"
"11480",2014-01-14 19:15:40,37.2205141,-7.4226743,0,"\N",29.2,"6",8.2,2.3,"9.6","19.7","-1.51","-0.08","-0.78","0.79","0101000020E610000053701D88D1B01DC048E757CE399C4240",0,"1.70144056610861","0.390862392976965","-44.5914186254525",-4,"2014"
"11481",2014-01-14 19:45:46,37.2205384,-7.4226606,7,"\N",28.4,"4",22.3,2.7,"23.4","26.3","-1.77","-0.08","-0.04","1.35","0101000020E6100000203BB9F0CDB01DC08FC12F9A3A9C4240",0,"1.7722584461641","1.06890334126133","-16.7465324525493",3,"2014"
"11482",2014-01-14 20:16:26,37.2213299,-7.4233914,7,"\N",28.4,"5",39.5,3.8,"12.1","6.4","-0.18","-0.11","-0.34","0.7","0101000020E610000070A1E1838DB11DC04010C589549C4240",0,"0.400124980474851","0.216519319709144","-142.324512320105",4,"2014"
"11483",2014-01-14 20:46:21,37.2213282,-7.423451,4,"\N",30.5,"5",10.8,2.8,"18.2","7.6","-1.83","0.84","0.5","0.99","0101000020E610000080D591239DB11DC05E57827B549C4240",0,"2.07472889795269","1.6715451358329","20.9079644362944",1,"2014"
"11484",2014-01-14 21:16:16,37.2214292,-7.4234891,12,"\N",30.3,"5",14,2.7,"13.1","23.6","-1.34","0.94","-0.91","1.17","0101000020E610000093D96A20A7B11DC09230C2CA579C4240",0,"1.87277868420163","0.774178253884414","78.6321317166184",9,"2014"
"11485",2014-01-14 21:46:39,37.2212011,-7.4234407,1,"\N",31.9,"6",29.1,2.9,"4.6","9.1","-0.1","0.03","-0.19","0.63","0101000020E61000006F2E59709AB11DC06C2B5151509C4240",0,"0.216794833886788","0.0905487103101995","169.289342642669",-2,"2014"
"11486",2014-01-14 22:16:30,37.2212377,-7.4234714,6,"\N",30.1,"6",12.4,4.2,"19.6","26.5","-2.45","1.62","-0.42","1.21","0101000020E6100000542A977CA2B11DC036125784519C4240",0,"2.96703555758943","1.80436830403088","45.6320207497587",3,"2014"
"11487",2014-01-14 22:46:39,37.2211373,-7.4234735,11,"\N",31.1,"5",29.6,4.8,"12.4","32.2","-0.54","0.08","-0.16","1.72","0101000020E610000000E48409A3B11DC07FB61F3A4E9C4240",0,"0.568858506133116","0.202972824219611","2.69975399073391",8,"2014"
"11488",2014-01-14 23:16:55,37.2213674,-7.4234808,7,"\N",31.3,"5",37.7,4,"3.2","9.1","-0.12","-0.01","-0.24","0.7","0101000020E610000088EF69F3A4B11DC045B357C4559C4240",0,"0.268514431641951","0.122580243957514","-168.031271071579",4,"2014"
"11489",2014-01-14 23:47:10,37.2214169,-7.4234336,8,"\N",32.6,"5",13,4.6,"17.6","34.5","-2.29","-0.15","-1.55","2.07","0101000020E6100000351CE09398B11DC00F249463579C4240",0,"2.76931399447589","0.462563806162862","-73.9858854109812",5,"2014"
"11490",2014-01-15 00:17:27,37.221481,-7.4234649,7,"\N",31.8,"6",38.1,2.3,"7.6","5.9","-0.15","-0.06","-0.49","0.81","0101000020E6100000010462C8A0B11DC0BAD7497D599C4240",0,"0.515945733580577","0.314941057601259","-165.495788157199",4,"2014"
"11491",2014-01-15 00:47:31,37.2213097,-7.4234742,1,"\N",31.6,"5",18.4,5.3,"7.4","6.5","0.24","-0.06","-0.33","1.01","0101000020E61000008FCC7E38A3B11DC0CFE451E0539C4240",0,"0.412431812546026","0.412413077811753","-176.038970751598",-2,"2014"
"11492",2014-01-15 01:17:57,37.2214419,-7.4235034,3,"\N",31.7,"5",8.8,4.1,"29.4","23.1","-0.45","-1.06","-1.1","1.33","0101000020E6100000AFFA12E0AAB11DC0683B4B35589C4240",0,"1.5925137362045","1.30574547914428","-121.840540314816",0,"2014"
"11493",2014-01-15 01:48:02,37.2215648,-7.4234742,0,"\N",31.5,"5",17.8,3,"23.5","24.8","-2.1","-0.51","-0.87","1.48","0101000020E61000008FCC7E38A3B11DC0EFF8403C5C9C4240",0,"2.32959223899806","0.938900104202002","-55.8546742313543",-3,"2014"
"11494",2014-01-15 02:19:09,37.2217217,-7.4233955,6,"\N",30,"5",76.7,2.5,"9.3","18","-0.2","-0.01","-0.05","1.28","0101000020E6100000221807978EB11DC022286D60619C4240",0,"0.206397674405503","0.0870520111257965","-24.2517220075994",3,"2014"
"11495",2014-01-15 02:49:16,37.2215681,-7.4234586,7,"\N",30.4,"5",12.3,2.6,"14.1","11.5","-1.33","-0.46","-0.78","0.64","0101000020E6100000FCD698219FB11DC01EABEF575C9C4240",0,"1.60900590427754","0.643552826450878","-77.370886279382",4,"2014"
"11496",2014-01-15 03:19:10,37.2215274,-7.4234483,2,"\N",31.1,"5",14.5,2.3,"22.3","14.5","-1.01","-0.27","-0.68","0.73","0101000020E6100000EC2F606E9CB11DC07E1585025B9C4240",0,"1.2471567664091","0.400570949547771","-83.8031869609697",-1,"2014"
"11497",2014-01-15 03:49:05,37.2208561,-7.4232964,7,"\N",31.6,"4",17.7,2.8,"24.5","31","-0.7","0.59","-2.08","1.88","0101000020E6100000E20E8A9C74B11DC0A14F3F03459C4240",0,"2.27255362973022","1.28901455024744","157.435930906961",3,"2014"
"11498",2014-01-15 04:19:38,37.2208164,-7.4232546,1,"\N",31.3,"7",26.8,4.1,"7.6","7","-0.68","0.02","-0.18","0.82","0101000020E6100000B88663A769B11DC0D13538B6439C4240",0,"0.703704483430367","0.274660413480294","-14.3390682144337",-3,"2014"
"11499",2014-01-15 04:49:32,37.2208213,-7.423293,6,"\N",30.4,"7",13.1,2.9,"11.1","22.5","-1.36","-0.52","-0.98","1.02","0101000020E6100000BF805EB873B11DC04EE152DF439C4240",0,"1.75510683435511","0.691372096728826","-90.4366453548858",2,"2014"
"11500",2014-01-15 05:19:33,37.2208058,-7.4233046,0,"\N",30.8,"6",22.2,6.2,"11.6","14.1","-0.07","-0.07","-0.11","1.19","0101000020E610000046FCD4C276B11DC031E24C5D439C4240",0,"0.147986485869487","0.0936185797216594","-123.0650203082",-4,"2014"
"11501",2014-01-15 05:49:28,37.2208528,-7.4233253,1,"\N",30.5,"7",9.5,4.3,"11.9","18","-0.14","-0.13","-0.19","1.34","0101000020E61000000E47FC2F7CB11DC0729D90E7449C4240",0,"0.26944387170615","0.166169351360561","-117.794026513197",-3,"2014"
"11502",2014-01-15 06:19:36,37.2208474,-7.4232915,5,"\N",30.2,"6",9.7,4.2,"22.8","31.1","-2.27","-1.1","-1.27","1.69","0101000020E6100000FBB2B45373B11DC00C3444BA449C4240",0,"2.82414588858295","1.40907291809279","-79.1885727053989",1,"2014"
"11503",2014-01-15 06:49:27,37.2208253,-7.4232416,12,"\N",30.5,"6",8.9,3.8,"11.7","9.5","-0.98","-0.94","-0.24","0.69","0101000020E6100000133AF93E66B11DC090D0E000449C4240",0,"1.37898513407506","1.10698219446612","-73.0218345348301",8,"2014"
"11504",2014-01-15 07:19:18,37.2240895,-7.4258471,13,"\N",26.4,"6",8.1,3.9,"14.2","12.8","-1.08","-1.3","0.06","0.73","0101000020E6100000C2621E4311B41DC041F0F8F6AE9C4240",0,"1.69115345252878","1.5472379166056","-67.4244277557521",11,"2014"
"11505",2014-01-15 07:49:28,37.224237,-7.4259561,10,"\N",29.8,"5",10.3,4.2,"20.1","15","-2.1","-1","0.59","0.98","0101000020E61000007720FCD52DB41DC0CEC64ACCB39C4240",0,"2.39960413401878","2.07897078629401","-37.4107631748537",9,"2014"
"11506",2014-01-15 08:19:38,37.22418,-7.4259549,6,"\N",28.4,"8",28.5,2,"5.9","8.9","-0.35","-0.12","-0.34","0.5","0101000020E6100000A74874852DB41DC0693524EEB19C4240",0,"0.502493781056044","0.178589551689639","-113.133748546569",5,"2014"
"11507",2014-01-15 08:49:26,37.2230594,-7.4280864,5,"\N",28.7,"7",8.7,2.5,"15.5","16","-1.4","-1.13","-0.72","0.88","0101000020E61000001273FF475CB61DC05E08DE358D9C4240",0,"1.9378596440403","1.31363808590293","-82.2087517353064",1,"2014"
"11508",2014-01-15 09:19:35,37.2177499,-7.4273451,7,"\N",25.9,"6",9.9,2.5,"17.1","11.7","-0.25","0.25","-1.63","1.09","0101000020E6100000646C32F499B51DC0889A8D3ADF9B4240",0,"1.66790287487012","1.14895570626556","169.185158066054",3,"2014"
"11509",2014-01-15 09:49:38,37.2106168,-7.3993078,7,"\N",34,"6",21.1,2.3,"9.7","19.5","-0.27","0.04","-0.19","1.22","0101000020E61000009D26D824E4981DC07CFEC57DF59A4240",0,"0.332565782966318","0.0145650870839001","19.6394699832944",5,"2014"
"11510",2014-01-15 10:19:48,37.2108072,-7.3993735,0,"\N",34.5,"4",23.3,5.3,"15.9","31.3","-1.46","-0.4","-0.46","2.36","0101000020E6100000658EE55DF5981DC073E1F6BAFB9A4240",0,"1.58215043532529","0.755265358192413","-50.7287620345427",-2,"2014"
"11511",2014-01-15 10:49:47,37.2107063,-7.3993075,8,"\N",33.3,"4",14.5,4.1,"20.5","25.9","-1.62","-1.27","0.34","1.68","0101000020E6100000A930B610E4981DC0D4C78D6CF89A4240",0,"2.08636046741688","1.86079507790573","-52.0864693929288",6,"2014"
"11512",2014-01-15 11:20:08,37.210879,-7.399344,8,"\N",32.7,"7",27.6,2.1,"5.7","7.9","-0.47","0","-0.39","0.48","0101000020E6100000516A2FA2ED981DC0E3344415FE9A4240",0,"0.610737259384099","0.0670035544763608","-115.396175048913",6,"2014"
"11513",2014-01-15 11:49:56,37.2110838,-7.3992461,6,"\N",34.1,"7",7.9,2,"8.3","13.1","-2.47","1.14","-2.81","0.87","0101000020E6100000E1383AF8D3981DC092DB40CB049B4240",0,"3.91108680548003","1.05167406767257","129.421427286781",4,"2014"
"11514",2014-01-15 12:20:09,37.2105745,-7.3993468,11,"\N",32.9,"6",29.1,2.6,"7.7","12.9","-0.89","0.43","0.05","1.27","0101000020E61000008C0C175EEE981DC08F6FEF1AF49A4240",0,"0.989696923305312","0.682445818625","27.1864686394186",9,"2014"
"11515",2014-01-15 12:50:11,37.2110981,-7.3993031,13,"\N",30.7,"6",7.3,2.7,"10.2","18.3","-2.36","0.86","-1.3","0.78","0101000020E610000003C46EE9E2981DC0B6DF3543059B4240",0,"2.82828569985424","0.707876014680434","50.8441760286458",11,"2014"
"11516",2014-01-15 13:20:04,37.2105323,-7.3993565,10,"\N",32.9,"5",8.5,3.4,"10.3","15","-1.36","0","-0.44","0.82","0101000020E6100000B4C70BE9F0981DC036A0EFB8F29A4240",0,"1.42940547081645","0.497060927617329","-20.6320362959055",8,"2014"
"11517",2014-01-15 13:50:13,37.2115734,-7.3986514,12,"\N",29.9,"5",13.9,3.3,"8.7","13.5","-0.66","0.26","-0.24","0.64","0101000020E6100000BA04961238981DC00DDA50D6149B4240",0,"0.748865809073962","0.283669500461021","37.5403767395738",7,"2014"
"11518",2014-01-15 14:20:38,37.2118864,-7.398634,0,"\N",28.3,"6",26.9,3.4,"11.3","17.3","-0.66","-0.36","-0.45","0.76","0101000020E61000006F4BE48233981DC0CC3BF3171F9B4240",0,"0.876184911990614","0.442092236533354","-88.7811797312818",-2,"2014"
"11519",2014-01-15 14:50:27,37.2119645,-7.3987229,-3,"\N",30.3,"6",8.2,3.9,"15.2","13.2","-2.22","-2.06","-0.9","0.79","0101000020E610000045AADED04A981DC0DDB419A7219B4240",0,"3.15943032839783","2.37260816425345","-78.963230574941",-5,"2014"
"11520",2014-01-15 15:20:39,37.2114738,-7.3988978,0,"\N",30.4,"7",28.3,2.6,"7.2","10.4","-0.1","-0.03","-0.07","0.68","0101000020E610000010C935AA78981DC0FD7ACF92119B4240",0,"0.125698050899765","0.0426696214363738","-87.4648988824706",-5,"2014"
"11521",2014-01-15 15:50:45,37.2112667,-7.3989228,2,"\N",29.6,"7",10.5,2.1,"10.8","14.1","-0.99","-0.44","-1.35","0.64","0101000020E6100000D783EE377F981DC0EF9D87C90A9B4240",0,"1.73095349446483","0.764096898611654","-132.447337582574",-3,"2014"
"11522",2014-01-15 16:20:36,37.2246614,-7.4258207,1,"\N",26,"6",9.7,2.3,"14.3","16.8","-0.44","-0.07","-0.98","0.79","0101000020E6100000DDD671570AB41DC038D66AB4C19C4240",0,"1.07652217812732","0.536935873862215","-166.397434335974",0,"2014"
"11523",2014-01-15 16:50:29,37.2246168,-7.425752,0,"\N",26.5,"5",10.9,2.7,"21.1","21.1","-1.25","-0.99","-1.11","1.14","0101000020E61000008DD31055F8B31DC0EB10493EC09C4240",0,"1.94285871848676","1.16263439854113","-100.477616091761",-1,"2014"
"11524",2014-01-15 17:20:21,37.2243373,-7.4258263,0,"\N",25.6,"5",11.1,2.4,"25","23","-2.2","-1.56","-0.72","1.27","0101000020E6100000531B41CF0BB41DC0F062AB15B79C4240",0,"2.79141541157886","1.93477992149271","-71.1717170815597",-1,"2014"
"11525",2014-01-15 18:21:08,37.2210023,-7.4232809,3,"\N",25.8,"5",58.3,4,"7.3","11.9","-0.25","0.14","-0.2","0.72","0101000020E6100000F6155A8C70B11DC09F6BA9CD499C4240",0,"0.349428104193123","0.106539535806402","89.1207761439966",-1,"2014"
"11526",2014-01-15 18:51:00,37.2208614,-7.4232208,-5,"\N",27.2,"5",10.8,3.8,"9.9","35.5","-1.75","0.42","-0.86","1.56","0101000020E6100000A5F21BCB60B11DC071F9B42F459C4240",0,"1.99461775786741","0.44090378673721","25.5821450005498",-9,"2014"
"11527",2014-01-15 19:21:06,37.2207807,-7.4232319,2,"\N",28.4,"5",9,2.7,"9.9","10.1","-0.84","-0.08","-1.73","0.7","0101000020E6100000EB7E04B463B11DC0430BBF8A429C4240",0,"1.92481167910006","0.899849048949502","-167.950104880512",-2,"2014"
"11528",2014-01-15 19:51:00,37.2208407,-7.4232991,5,"\N",28.5,"5",11.2,2.1,"10.4","11","-1.6","-1.7","-2.74","1.23","0101000020E610000077B4BB5175B11DC018101082449C4240",0,"3.59966665123314","2.32756597377686","-125.60320150561",1,"2014"
"11529",2014-01-15 20:21:08,37.2208014,-7.4232359,4,"\N",29.7,"6",27.4,2.6,"4.5","8.8","-0.59","0.09","-0.39","0.54","0101000020E6100000F6F873C064B11DC09CF46338439C4240",0,"0.712951611261241","0.052020893831187","14.4932101772578",0,"2014"
"11530",2014-01-15 20:51:14,37.2203585,-7.4234593,4,"\N",28.5,"6",9.6,2.3,"7.3","7.9","-0.63","0.27","-1.16","0.53","0101000020E61000008BBF92509FB11DC0A47213B5349C4240",0,"1.34736780427617","0.556846094356446","160.44968423515",1,"2014"
"11531",2014-01-15 21:21:04,37.2202297,-7.4234307,4,"\N",28.9,"6",7.8,1.9,"10.8","21.9","-1.41","0.54","-0.77","0.9","0101000020E6100000537D42D197B11DC0CF8D9F7C309C4240",0,"1.69487462663172","0.447571354596244","52.1268756982449",1,"2014"
"11532",2014-01-15 21:50:58,37.2204576,-7.4234585,5,"\N",27.6,"4",10,5,"18.7","17.3","-2.24","0.17","-0.22","1.25","0101000020E610000055DAE21A9FB11DC0CC1363F4379C4240",0,"2.2571885167172","1.1878413095577","-5.83867311209465",2,"2014"
"11533",2014-01-15 22:21:18,37.220258,-7.423403,1,"\N",29.2,"4",38.1,9.1,"28","48.7","-1.33","0.28","-0.26","2.8","0101000020E6100000F81C588E90B11DC05857056A319C4240",0,"1.38379911836943","0.621660546090403","9.80035414638952",-2,"2014"
"11534",2014-01-15 22:52:06,37.2213538,-7.4234915,13,"\N",28.9,"4",46.3,5.2,"11.7","11.6","-0.37","-0.05","-0.02","1.18","0101000020E610000033897AC1A7B11DC034EC4152559C4240",0,"0.373898381916798","0.22434150201691","-25.7277762982188",10,"2014"
"11535",2014-01-15 23:22:21,37.22142,-7.4235147,-21,"\N",28,"5",37.5,8.3,"12.2","19.1","-0.34","0.07","-0.15","1.65","0101000020E6100000428067D6ADB11DC01557957D579C4240",0,"0.378153408023781","0.0935061079319514","15.8156235952079",-24,"2014"
"11536",2014-01-15 23:52:19,37.2215586,-7.4234859,0,"\N",29.5,"6",11.9,2.3,"13.5","26.9","-2.19","-0.97","-1.3","1.32","0101000020E6100000BD44AB49A6B11DC0E3923E085C9C4240",0,"2.72525228189979","1.26120509147101","-80.7549314805618",-3,"2014"
"11537",2014-01-19 11:13:31,37.2101184,-7.3999012,6,"\N",30.7,"5",52.8,5.5,"7.6","6.3","-0.62","-0.24","-0.09","0.95","0101000020E61000004E863EB37F991DC0D824E428E59A4240",0,"0.67089492470878","0.42454923257771","-48.4765354489684",4,"2014"
"11538",2014-01-19 11:43:27,37.2098669,-7.3996247,8,"\N",28.9,"5",9.2,4.9,"28.7","20.7","-4.55","-6.31","-2.04","2.32","0101000020E6100000FCB1A43737991DC0A70128EBDC9A4240",0,"8.04240013926191","6.8707944069863","-84.8857034760441",5,"2014"
"11539",2014-01-19 12:13:39,37.2102862,-7.399535,7,"\N",32,"6",29.3,2.5,"7","8.7","-1.06","0.11","-0.5","0.58","0101000020E6100000F06DFAB31F991DC06AE67FA8EA9A4240",0,"1.17715759352773","0.247569144218857","-6.36148004415204",5,"2014"
"11540",2014-01-19 12:43:41,37.2112364,-7.3991782,9,"\N",33.1,"6",7.6,2.7,"10.2","19.5","-2.86","2.78","-1.57","1.08","0101000020E6100000C61A892BC2981DC0C5DC5ACB099B4240",0,"4.28636209389734","2.48381401364716","74.0789378949074",7,"2014"
"11541",2014-01-19 13:13:36,37.2101278,-7.3995048,18,"\N",30.7,"6",10.8,3.5,"11.1","14.6","1.31","-7.8","-4.54","1.07","0101000020E61000004D614AC917991DC07F7DBE77E59A4240",0,"9.11963266804097","9.07403119447626","-123.504269426498",16,"2014"
"11542",2014-01-19 13:43:27,37.2099646,-7.3994671,14,"\N",29.3,"5",10,4.5,"18.9","18.8","-0.55","-0.43","-0.3","1.7","0101000020E6100000D54F49E70D991DC0AB28B91EE09A4240",0,"0.759868409660515","0.500555829975992","-83.4130499845749",11,"2014"
"11543",2014-01-19 14:14:07,37.209908,-7.3994611,13,"\N",29.1,"5",42.1,2.8,"4.4","9.5","0.1","-0.1","0.18","0.63","0101000020E6100000C418A2540C991DC09A95ED43DE9A4240",0,"0.228910462845192","0.11472064946073","-48.7780794095731",10,"2014"
"11544",2014-01-19 14:43:59,37.2099151,-7.3995691,7,"\N",32,"5",10.4,2.7,"12.9","10.8","-1.28","-0.16","-0.94","0.71","0101000020E6100000F7F763A428991DC0E2B77C7FDE9A4240",0,"1.5961202962183","0.323581970830488","-88.8461588026266",4,"2014"
"11545",2014-01-19 15:13:49,37.2098092,-7.399571,7,"\N",30.8,"5",8.6,2.6,"13.5","27","-4.05","2.11","-1.57","1.54","0101000020E610000056B8E52329991DC031332207DB9A4240",0,"4.82902681707195","2.0665037195047","49.4767103213736",4,"2014"
"11546",2014-01-19 15:43:41,37.2109301,-7.399547,9,"\N",25.5,"5",8.8,2.4,"7.4","13.7","-2.72","0.72","-1.6","0.97","0101000020E610000012DC48D922991DC0FA9EECC1FF9A4240",0,"3.23678853186303","0.550344296552714","41.3655971896109",7,"2014"
"11547",2014-01-19 16:13:50,37.2115577,-7.3988594,14,"\N",26.5,"4",10,3.1,"9.3","19.2","-3.37","0.83","-1.77","1.23","0101000020E610000009CF3A996E981DC0C65B9D52149B4240",0,"3.8959851129079","0.780050252900134","29.9228009651132",9,"2014"
"11548",2014-01-19 16:44:09,37.211116,-7.3989119,12,"\N",26.2,"8",37.1,2.6,"3.6","6.2","-0.36","0.2","0","0.58","0101000020E6100000DEF0715C7C981DC0C7D45DD9059B4240",0,"0.41182520563948","0.276905640806204","33.2870216236495",7,"2014"
"11549",2014-01-19 17:14:05,37.2118908,-7.3986258,13,"\N",26.8,"7",9.4,2.4,"7.7","18.1","-1.09","-0.27","-0.63","0.74","0101000020E61000000A5E995C31981DC06129DC3C1F9B4240",0,"1.2875946567146","0.42860549789703","-72.2111240108354",11,"2014"
"11550",2014-01-19 17:44:12,37.2246599,-7.4259272,9,"\N",23.4,"7",8.6,2.2,"9.7","15.7","-1.14","-0.42","-1.05","0.84","0101000020E61000004CE8894226B41DC07F9CD5A7C19C4240",0,"1.60577084292872","0.593413649231642","-108.172305809975",8,"2014"
"11551",2014-01-19 18:14:17,37.224589,-7.4260836,7,"\N",24.9,"6",10,3.2,"21.6","16","-2.23","-2.37","-0.29","1.31","0101000020E6100000A2725D424FB41DC04B051555BF9C4240",0,"3.267093509528","2.79463404808578","-70.7474517844337",6,"2014"
"11552",2014-01-19 18:44:23,37.2215103,-7.4230122,2,"\N",25.5,"4",19.9,4.3,"19.8","34.9","-1.74","0.21","-0.67","1.67","0101000020E61000006D3C331C2AB11DC0131D13735A9C4240",0,"1.87632619765328","0.526850515094395","-1.80092613301846",-2,"2014"
"11553",2014-01-19 19:14:42,37.2214021,-7.4230643,4,"\N",27.4,"4",15.3,3.1,"24.8","20.7","-1.55","-1.33","-0.35","1.58","0101000020E6100000A86B92C437B11DC003626DE7569C4240",0,"2.0721727727195","1.61461619844087","-70.1941515433364",0,"2014"
"11554",2014-01-19 19:44:47,37.220143,-7.4228916,0,"\N",27,"4",12.5,2.7,"22","19.7","-1.63","-1.35","-0.3","1.08","0101000020E61000003003DF7E0AB11DC0BFB854A52D9C4240",0,"2.13761549395582","1.67370909669511","-67.7666006542011",-4,"2014"
"11555",2014-01-19 20:15:09,37.2200891,-7.4228772,10,"\N",27.9,"7",42.5,2,"6.8","10.2","-0.23","0.11","-0.11","0.46","0101000020E61000006EE580B806B11DC0615A2FE12B9C4240",0,"0.277668867538296","0.0988666026479368","53.392488201321",6,"2014"
"11556",2014-01-19 20:45:14,37.2200592,-7.4228883,7,"\N",23.8,"7",7.9,2.1,"8.7","7","-1","0.44","-0.24","0.41","0101000020E6100000B47169A109B11DC08B975DE62A9C4240",0,"1.11857051632877","0.539110308228356","34.7279843590003",3,"2014"
"11557",2014-01-19 21:15:07,37.2200793,-7.422889,13,"\N",25.6,"7",9.1,2.1,"9","15.2","-1.04","0.51","-0.4","0.75","0101000020E6100000425A63D009B11DC06703FA8E2B9C4240",0,"1.22543869695713","0.506978051930991","47.097247874685",9,"2014"
"11558",2014-01-19 21:45:01,37.2200711,-7.4228809,8,"\N",27.4,"5",11.3,3.9,"11.4","23.6","-2.08","0.4","-0.41","1.04","0101000020E61000008569CEB007B11DC0BAA5304A2B9C4240",0,"2.1574290254838","0.960924199274908","7.65058963840602",4,"2014"
"11559",2014-01-19 22:14:56,37.2200375,-7.422871,14,"\N",27.9,"6",14.5,4.1,"23.1","39.4","-1.64","0.11","-0.2","2.07","0101000020E61000000FB56D1805B11DC0613255302A9C4240",0,"1.65580795987941","0.839336934181565","-7.03482591959448",10,"2014"
"11560",2014-01-19 22:45:24,37.2201131,-7.4228572,7,"\N",27.9,"5",34.6,3.5,"14.1","13.3","-0.42","-0.18","0.07","1.47","0101000020E61000003583537A01B11DC0E9F582AA2C9C4240",0,"0.462276973253049","0.374662699995911","-38.4060386729347",3,"2014"
"11561",2014-01-19 23:15:36,37.2200852,-7.4228685,6,"\N",28.5,"6",22.8,4.5,"13.4","19.2","-0.98","-0.36","-0.47","1.41","0101000020E6100000C808A87004B11DC0B42A78C02B9C4240",0,"1.14494541354599","0.517916306123491","-69.0228934136273",2,"2014"
"11562",2014-01-19 23:45:34,37.2201356,-7.4229191,0,"\N",27.4,"5",13.1,3.9,"21.2","25.5","-2.57","-0.54","-0.84","1.53","0101000020E61000003E6A5DB411B11DC0B95741672D9C4240",0,"2.75719059914254","1.20088641274199","-46.2514921607457",-4,"2014"
"11563",2014-01-20 00:15:48,37.2205237,-7.4234832,-1,"\N",25.4,"4",19.2,8,"18.7","7.4","-0.37","-0.07","-0.53","0.85","0101000020E6100000289F7994A5B11DC018BFDF1E3A9C4240",0,"0.650153827951509","0.236654622111226","-150.309629962282",-4,"2014"
"11564",2014-01-20 00:45:50,37.2205405,-7.4235965,2,"\N",25.3,"4",13.5,3.2,"33.9","17.2","-3.1","-1.47","0.77","2.68","0101000020E6100000DECCE847C3B11DC0C478CDAB3A9C4240",0,"3.51621956083519","3.00194919871578","-38.2432512143292",-1,"2014"
"11565",2014-01-20 01:16:15,37.2205897,-7.4234191,6,"\N",23,"5",46.6,2.8,"12.4","23","0.16","-0.08","0.04","1.25","0101000020E6100000CC01CCC694B11DC0CFAA85483C9C4240",0,"0.183303027798234","0.0916113180696471","-140.186946201532",3,"2014"
"11566",2014-01-20 01:46:43,37.2200806,-7.4232459,5,"\N",24,"4",18.8,3,"18.8","24.4","-2.15","0.35","-0.44","1.24","0101000020E610000013AA8A5F67B11DC0F6BDE1992B9C4240",0,"2.22229610988275","0.96904133763227","4.10041926138411",1,"2014"
"11567",2014-01-20 02:17:19,37.2208517,-7.4230266,3,"\N",23.1,"4",47,6.6,"22.4","28.4","-0.77","-0.66","-0.7","2.06","0101000020E6100000305A91E22DB11DC00C6256DE449C4240",0,"1.23227432010896","0.768170696068411","-101.042529257967",-1,"2014"
"11568",2014-01-20 02:47:26,37.2206786,-7.4229934,1,"\N",23.1,"4",14.4,4.1,"27.6","23.6","-1.16","-0.5","-0.38","0.96","0101000020E610000005B28D2E25B11DC0AAF644323F9C4240",0,"1.31909059582729","0.736405613826001","-61.2577194821968",-3,"2014"
"11569",2014-01-20 03:17:16,37.2208891,-7.4230813,0,"\N",24.6,"4",12.6,4.5,"47","24.9","-2.21","-2","0.77","2.88","0101000020E610000058326C393CB11DC07D451218469C4240",0,"3.07847364776767","2.8852112826755","-51.8448617271932",-4,"2014"
"11570",2014-01-20 03:47:43,37.2209309,-7.4232828,10,"\N",22.7,"7",31.7,3.9,"8.7","22.2","-0.32","0.02","-0.09","1.31","0101000020E610000055D6DB0B71B11DC08216B776479C4240",0,"0.333016516106934","0.123722099757065","-10.0127194834961",6,"2014"
"11571",2014-01-20 04:17:43,37.2209365,-7.4232891,2,"\N",22.9,"6",8,4.1,"7.1","13.4","-1.34","-0.15","-1.14","0.69","0101000020E61000005A03A5B272B11DC011FFB0A5479C4240",0,"1.7657009939398","0.342051184689686","-109.78038463764",-2,"2014"
"11572",2014-01-20 04:47:45,37.2209601,-7.4232772,5,"\N",22.7,"6",18.2,5.6,"6.9","7.2","-0.04","-0.03","-0.03","0.93","0101000020E6100000DF910C946FB11DC0469CA96B489C4240",0,"0.058309518948453","0.0349883403627347","-93.6722361563094",1,"2014"
"11573",2014-01-20 05:18:09,37.2210255,-7.4232129,5,"\N",22.2,"6",18.4,5.1,"9.9","12.2","-0.05","-0.1","-0.11","1.18","0101000020E610000035FBF2B85EB11DC0810A47904A9C4240",0,"0.156843871413581","0.124239479356168","-121.772393615623",1,"2014"
"11574",2014-01-20 05:48:30,37.2209546,-7.4232205,5,"\N",23,"5",31.6,5.7,"11","19.9","-0.41","-0.11","-0.27","1.26","0101000020E6100000B1FCF9B660B11DC04C73863D489C4240",0,"0.503090449124211","0.163579859618297","-82.1553575453603",1,"2014"
"11575",2014-01-20 06:19:07,37.221287,-7.4231743,2,"\N",20.6,"6",44.7,4.5,"8.1","8.3","-0.04","0","0.07","0.61","0101000020E6100000E1078C9A54B11DC0D503E621539C4240",0,"0.0806225774829855","0.0799016799499719","-3.70835533187503",-2,"2014"
"11576",2014-01-20 06:49:23,37.2210676,-7.42324,-13,"\N",21.6,"5",21,9.8,"17.3","21.9","-1.83","0.74","-0.48","2.46","0101000020E6100000A86F99D365B11DC0441A70F14B9C4240",0,"2.03147729497526","0.919419779073355","32.7487624356191",-17,"2014"
"11577",2014-01-20 07:19:34,37.2239788,-7.4258463,2,"\N",20.6,"5",24.1,8.7,"19.5","15.4","-0.14","0.11","-0.04","1.57","0101000020E61000008C7D6E0D11B41DC0A87F5A56AB9C4240",0,"0.182482875908947","0.109389360104252","56.2778095645766",0,"2014"
"11578",2014-01-20 07:49:26,37.2240183,-7.4258509,2,"\N",22,"9",8.5,1.9,"5.8","8.3","-0.85","0.02","-0.8","0.62","0101000020E610000080E3214212B41DC04E1AB4A1AC9C4240",0,"1.16743308159397","0.154511992941174","-144.363818396881",0,"2014"
"11579",2014-01-20 08:19:33,37.2240949,-7.4258391,1,"\N",21.5,"9",7.7,1.9,"9.7","11.7","-3.32","0.13","0.37","0.66","0101000020E6100000AB6E3F2A0FB41DC0A6594524AF9C4240",0,"3.34308240999231","2.31585895282297","-7.44750406191013",-1,"2014"
"11580",2014-01-20 08:49:27,37.2111532,-7.3996091,8,"\N",24.3,"7",9.9,2.6,"8.1","10.1","-0.92","-0.31","-0.42","0.66","0101000020E610000069BCBE2033991DC00E396C11079B4240",0,"1.05778069560755","0.467635457446014","-65.6107051763995",6,"2014"
"11581",2014-01-20 09:19:21,37.2111509,-7.3995859,14,"\N",28.8,"6",12.1,2.9,"23.9","13.4","-0.86","-1.91","0.11","1.87","0101000020E61000005AC5D10B2D991DC0AF0221FE069B4240",0,"2.09757002266909","2.05574638376984","-77.2241748102329",12,"2014"
"11582",2014-01-20 09:49:24,37.2109271,-7.3995534,14,"\N",29.4,"5",23.2,6.1,"6.4","14.7","-0.55","0.01","-0.38","1.56","0101000020E6100000BE05C88624991DC0892BC2A8FF9A4240",0,"0.668580586017871","0.0670370044202657","-65.3264769827652",12,"2014"
"11583",2014-01-20 10:20:09,37.2112721,-7.3994969,9,"\N",28.6,"6",44.4,2.7,"5.1","7.6","0.05","-0.06","0.07","0.54","0101000020E6100000DD6921B715991DC05407D4F60A9B4240",0,"0.104880884817015","0.0570985542447854","-68.3240757714616",7,"2014"
"11584",2014-01-20 10:49:57,37.2112241,-7.3995226,6,"\N",29,"6",8.6,2.2,"9.8","11.3","-2.21","0.48","-0.67","0.66","0101000020E6100000330DD4731C991DC043D02C64099B4240",0,"2.35868607491544","0.850967973952547","12.9969956685371",4,"2014"
"11585",2014-01-20 11:19:59,37.2113457,-7.3995578,7,"\N",29.4,"5",18.8,5.3,"7.3","6.6","-0.28","-0.29","-0.18","1.2","0101000020E610000064720FAE25991DC03BD33A600D9B4240",0,"0.441474801092882","0.323651612987556","-89.6492767697613",5,"2014"
"11586",2014-01-20 11:50:36,37.2109276,-7.3996142,11,"\N",33.7,"8",32,1.9,"4.4","6.3","-0.16","0.01","0.03","0.6","0101000020E61000009E11007734991DC071E9F3ACFF9A4240",0,"0.163095064303001","0.121098348399096","-5.06416314286896",9,"2014"
"11587",2014-01-20 12:20:37,37.2105871,-7.3993651,6,"\N",36.2,"6",9.3,3.1,"7","11.4","-1.1","-0.2","-0.4","0.64","0101000020E6100000B3A72E2AF3981DC0D0BAA184F49A4240",0,"1.18743420870379","0.470715555227041","-46.2446550351602",4,"2014"
"11588",2014-01-20 12:50:29,37.2111692,-7.3993368,5,"\N",36.4,"6",9.5,4.4,"16.4","22.7","-1.69","-0.34","-0.01","1.07","0101000020E6100000705B00BFEB981DC014F6A397079B4240",0,"1.72389094782704","1.12535135803724","-29.5388696881082",3,"2014"
"11589",2014-01-20 13:20:40,37.211204,-7.3991922,10,"\N",32.6,"5",12.7,4.2,"23.9","17.1","-1.5","-1.14","0.18","2.36","0101000020E6100000EE450FD7C5981DC0676490BB089B4240",0,"1.8926172354705","1.63172489220683","-54.2148051857829",8,"2014"
"11590",2014-01-20 13:50:34,37.211678,-7.3990736,18,"\N",34.2,"5",14.9,3,"28.1","20.4","-3.84","-3.5","0.48","3.18","0101000020E6100000B7C9F2BFA6981DC02FA4C343189B4240",0,"5.21785396499365","4.64165752985694","-58.6825315365428",16,"2014"
"11591",2014-01-20 14:21:19,37.2110703,-7.399306,4,"\N",31.2,"4",51.9,6,"9.1","9.6","0.33","-0.3","-0.29","1.12","0101000020E6100000E5620CACE3981DC016D4015A049B4240",0,"0.531977443130816","0.519172051288955","-150.582298977551",2,"2014"
"11592",2014-01-20 14:51:25,37.2109819,-7.3992987,-12,"\N",33.5,"4",18.2,5.2,"7.8","14.2","-1.68","1.34","-2.83","1.46","0101000020E61000005D5727C2E1981DC023467474019B4240",0,"3.55343495789637","1.59427487984089","135.74922442688",-14,"2014"
"11593",2014-01-20 15:21:50,37.210945,-7.3993458,-4,"\N",32,"4",19.4,5.2,"5.7","12.3","-1.27","0.4","-0.52","0.93","0101000020E6100000092EFB1AEE981DC09B20EA3E009B4240",0,"1.42944044996635","0.444659380690963","31.6178195681458",-6,"2014"
"11594",2014-01-20 15:52:01,37.2107818,-7.399446,13,"\N",33,"4",22.6,5.5,"7.3","13.5","-3.48","-0.36","-0.8","1.72","0101000020E610000073124A5F08991DC0C7CBE4E5FA9A4240",0,"3.58887168898527","1.63398627535882","-29.5227265106746",11,"2014"
"11595",2014-01-20 16:22:07,37.2110874,-7.3993251,18,"\N",32.7,"6",20.9,3,"6.8","11.3","-0.87","0.34","-0.22","0.76","0101000020E610000042E3D3ADE8981DC080CC73E9049B4240",0,"0.959635347410671","0.435692968861085","31.1117902500791",16,"2014"
"11596",2014-01-20 16:52:20,37.211725,-7.398783,8,"\N",29,"6",10.1,2.1,"4.9","7.5","-1.31","-0.1","-0.22","0.54","0101000020E610000096CD1C925A981DC0705F07CE199B4240",0,"1.33210359957475","0.659492983051161","-23.9640633164339",6,"2014"
"11597",2014-01-20 17:22:24,37.2116609,-7.3987939,11,"\N",27.7,"6",10.5,1.9,"9","8.2","-1.14","-1.03","-0.51","0.54","0101000020E61000008F60996D5D981DC0C4AB51B4179B4240",0,"1.61882673563294","1.18477192317797","-80.4135955346916",6,"2014"
"11598",2014-01-20 17:52:31,37.2253549,-7.4252236,32,"\N",26.2,"4",21.5,6.5,"15.4","27.3","-1.54","-0.65","-0.66","1.59","0101000020E610000015F3BDD06DB31DC026BFEA6DD89C4240",0,"1.79713661139046","0.912324466576482","-67.6133340293658",30,"2014"
"11599",2014-01-20 18:23:09,37.2208716,-7.4234276,6,"\N",24.2,"4",35.6,4.7,"6.7","23.5","-0.64","0.17","-0.39","0.88","0101000020E610000024E5380197B11DC0BF4E4585459C4240",0,"0.768505042273634","0.121974123975078","44.7598345373899",3,"2014"
"11600",2014-01-20 18:53:08,37.2205317,-7.423441,3,"\N",27.9,"4",11,3.5,"13.4","12.7","-1.27","-0.38","-0.61","0.7","0101000020E610000064247B849AB11DC09B9DFB613A9C4240",0,"1.45924638084184","0.594344144654461","-65.5163906051573",0,"2014"
"11601",2014-01-20 19:23:01,37.2207365,-7.423463,8,"\N",28.5,"4",12.2,2.6,"15.5","20.9","-1.19","-0.69","-1.81","1.13","0101000020E6100000A243E048A0B11DC04A44F817419C4240",0,"2.27338953987213","1.14580820443571","-133.001790335936",5,"2014"
